{"type":"FeatureCollection","features":[{"type":"Feature","geometry":{"type":"Point","coordinates":[16.9944606,52.3832493]},"properties":{"name":"PL82123","ref":"PL82123","brand":"DPD Pickup Station","operator":"DPD","address":"","openingHours":"24/7","website":"https://www.dpd.com/pl/pl/dpd-pickup/znajdz-punkt-pickup/"}},{"type":"Feature","geometry":{"type":"Point","coordinates":[16.9311225,52.3663389]},"properties":{"name":"POZ10A","ref":"POZ10A","brand":"Paczkomat InPost","operator":"InPost","address":"","openingHours":"24/7","website":"https://inpost.pl/paczkomat-poznan-poz10a-ksiazeca-paczkomaty-wielkopolskie"}},{"type":"Feature","geometry":{"type":"Point","coordinates":[16.996463,52.392236]},"properties":{"name":"PL92350","ref":"PL92350","brand":"DPD Pickup Station","operator":"DPD","address":"","openingHours":"24/7","website":"https://www.dpd.com/pl/pl/dpd-pickup/znajdz-punkt-dpd-pickup/"}},{"type":"Feature","geometry":{"type":"Point","coordinates":[16.9552899,52.4097341]},"properties":{"name":"574674","ref":"574674","brand":"Orlen Paczka","operator":"Orlen","address":"","openingHours":"24/7","website":""}},{"type":"Feature","geometry":{"type":"Point","coordinates":[16.8936265,52.4478131]},"properties":{"name":"POZ01A","ref":"POZ01A","brand":"Paczkomat InPost","operator":"InPost","address":"","openingHours":"24/7","website":"https://inpost.pl/paczkomat-poznan-poz01a-strzeszynska-paczkomaty-wielkopolskie"}},{"type":"Feature","geometry":{"type":"Point","coordinates":[16.972642,52.4100829]},"properties":{"name":"POZ16B","ref":"POZ16B","brand":"Paczkomat InPost","operator":"InPost","address":"","openingHours":"24/7","website":"https://inpost.pl/paczkomat-poznan-poz16b-warszawska-paczkomaty-wielkopolskie"}},{"type":"Feature","geometry":{"type":"Point","coordinates":[16.9142197,52.4361823]},"properties":{"name":"POZ05A","ref":"POZ05A","brand":"Paczkomat InPost","operator":"InPost","address":"","openingHours":"24/7","website":""}},{"type":"Feature","geometry":{"type":"Point","coordinates":[16.9214333,52.4387104]},"properties":{"name":"POZ32A","ref":"POZ32A","brand":"Paczkomat InPost","operator":"InPost","address":"","openingHours":"24/7","website":"https://inpost.pl/paczkomat-poznan-poz32a-mieszka-i-paczkomaty-wielkopolskie"}},{"type":"Feature","geometry":{"type":"Point","coordinates":[16.9779407,52.4267978]},"properties":{"name":"POZ26A","ref":"POZ26A","brand":"Paczkomat InPost","operator":"InPost","address":"","openingHours":"24/7","website":"https://inpost.pl/paczkomat-poznan-poz26a-baltycka-paczkomaty-wielkopolskie"}},{"type":"Feature","geometry":{"type":"Point","coordinates":[16.9816033,52.4649504]},"properties":{"name":"CZK01A","ref":"CZK01A","brand":"Paczkomat InPost","operator":"InPost","address":"","openingHours":"24/7","website":"https://inpost.pl/paczkomat-czerwonak-czk01a-lesna-paczkomaty-wielkopolskie"}},{"type":"Feature","geometry":{"type":"Point","coordinates":[16.936258,52.3982806]},"properties":{"name":"","ref":"","brand":"Paczkomat InPost","operator":"InPost","address":"","openingHours":"24/7","website":""}},{"type":"Feature","geometry":{"type":"Point","coordinates":[16.8789558,52.3507659]},"properties":{"name":"LBO02B","ref":"LBO02B","brand":"Paczkomat InPost","operator":"InPost","address":"","openingHours":"24/7","website":"https://inpost.pl/paczkomat-lubon-lbo02b-zabikowska-paczkomaty-wielkopolskie"}},{"type":"Feature","geometry":{"type":"Point","coordinates":[16.9467886,52.4308516]},"properties":{"name":"POZ27A","ref":"POZ27A","brand":"Paczkomat InPost","operator":"InPost","address":"","openingHours":"24/7","website":"https://inpost.pl/paczkomat-poznan-poz27a-serbska-paczkomaty-wielkopolskie"}},{"type":"Feature","geometry":{"type":"Point","coordinates":[16.8439946,52.3583872]},"properties":{"name":"","ref":"","brand":"Paczkomat InPost","operator":"InPost","address":"","openingHours":"24/7","website":""}},{"type":"Feature","geometry":{"type":"Point","coordinates":[16.9723189,52.3830876]},"properties":{"name":"POZ19M","ref":"POZ19M","brand":"Paczkomat InPost","operator":"InPost","address":"","openingHours":"24/7","website":"https://inpost.pl/paczkomat-poznan-poz19m-bobrzanska-paczkomaty-wielkopolskie"}},{"type":"Feature","geometry":{"type":"Point","coordinates":[16.9735961,52.3821954]},"properties":{"name":"POZ47A","ref":"POZ47A","brand":"Paczkomat InPost","operator":"InPost","address":"","openingHours":"24/7","website":"https://inpost.pl/paczkomat-poznan-poz47a-bobrzanska-paczkomaty-wielkopolskie"}},{"type":"Feature","geometry":{"type":"Point","coordinates":[16.9664047,52.3775926]},"properties":{"name":"POZ02A","ref":"POZ02A","brand":"Paczkomat InPost","operator":"InPost","address":"","openingHours":"24/7","website":"https://inpost.pl/paczkomat-poznan-poz02a-os-orla-bialego-paczkomaty-wielkopolskie"}},{"type":"Feature","geometry":{"type":"Point","coordinates":[16.9132752,52.4025218]},"properties":{"name":"POZ29A","ref":"POZ29A","brand":"Paczkomat InPost","operator":"InPost","address":"","openingHours":"24/7","website":""}},{"type":"Feature","geometry":{"type":"Point","coordinates":[16.8874868,52.3535976]},"properties":{"name":"LBO01A","ref":"LBO01A","brand":"Paczkomat InPost","operator":"InPost","address":"","openingHours":"24/7","website":""}},{"type":"Feature","geometry":{"type":"Point","coordinates":[16.9911757,52.389255]},"properties":{"name":"AL086PO1","ref":"AL086PO1","brand":"Allegro One Box","operator":"UPS","address":"","openingHours":"24/7","website":"https://allegro.pl/kampania/one/znajdz-nas"}},{"type":"Feature","geometry":{"type":"Point","coordinates":[16.858984,52.3915641]},"properties":{"name":"POZ17A","ref":"POZ17A","brand":"Paczkomat InPost","operator":"InPost","address":"","openingHours":"24/7","website":""}},{"type":"Feature","geometry":{"type":"Point","coordinates":[16.989719,52.4455436]},"properties":{"name":"KOG01A","ref":"KOG01A","brand":"Paczkomat InPost","operator":"InPost","address":"","openingHours":"24/7","website":"https://inpost.pl/paczkomat-kozieglowy-kog01a-zolnierzy-niezlomnych-paczkomaty-wielkopolskie"}},{"type":"Feature","geometry":{"type":"Point","coordinates":[16.9224574,52.4517629]},"properties":{"name":"POZ09ML","ref":"POZ09ML","brand":"Paczkomat InPost","operator":"InPost","address":"","openingHours":"24/7","website":"https://inpost.pl/paczkomat-poznan-poz09ml-boleslawa-smialego-paczkomaty-wielkopolskie"}},{"type":"Feature","geometry":{"type":"Point","coordinates":[16.9205508,52.4609423]},"properties":{"name":"POZ18A","ref":"POZ18A","brand":"Paczkomat InPost","operator":"InPost","address":"","openingHours":"24/7","website":""}},{"type":"Feature","geometry":{"type":"Point","coordinates":[16.930119,52.4440213]},"properties":{"name":"POZ31A","ref":"POZ31A","brand":"Paczkomat InPost","operator":"InPost","address":"","openingHours":"24/7","website":""}},{"type":"Feature","geometry":{"type":"Point","coordinates":[16.9032353,52.3627919]},"properties":{"name":"POZ16A","ref":"POZ16A","brand":"Paczkomat InPost","operator":"InPost","address":"","openingHours":"24/7","website":"https://inpost.pl/paczkomat-poznan-poz16a-28-czerwca-1956-roku-paczkomaty-wielkopolskie"}},{"type":"Feature","geometry":{"type":"Point","coordinates":[16.947928,52.4389707]},"properties":{"name":"POZ19A","ref":"POZ19A","brand":"Paczkomat InPost","operator":"InPost","address":"","openingHours":"24/7","website":""}},{"type":"Feature","geometry":{"type":"Point","coordinates":[16.9032031,52.4633819]},"properties":{"name":"","ref":"","brand":"Paczkomat InPost","operator":"InPost","address":"","openingHours":"24/7","website":"https://inpost.pl/paczkomat-poznan-poz14a-strozynskiego-paczkomaty-wielkopolskie"}},{"type":"Feature","geometry":{"type":"Point","coordinates":[16.9914472,52.3936932]},"properties":{"name":"POZ03B","ref":"POZ03B","brand":"Paczkomat InPost","operator":"InPost","address":"Szwajcarska","openingHours":"24/7","website":"https://inpost.pl/paczkomat-poznan-poz03b-szwajcarska-paczkomaty-wielkopolskie"}},{"type":"Feature","geometry":{"type":"Point","coordinates":[16.8137881,52.3637641]},"properties":{"name":"PLW02N","ref":"PLW02N","brand":"Paczkomat InPost","operator":"InPost","address":"","openingHours":"24/7","website":"https://inpost.pl/paczkomat-plewiska-plw02n-kolejowa-paczkomaty-wielkopolskie"}},{"type":"Feature","geometry":{"type":"Point","coordinates":[16.8130589,52.3690712]},"properties":{"name":"PLW01M","ref":"PLW01M","brand":"Paczkomat InPost","operator":"InPost","address":"","openingHours":"24/7","website":"https://inpost.pl/paczkomat-plewiska-plw01m-grunwaldzka-paczkomaty-wielkopolskie"}},{"type":"Feature","geometry":{"type":"Point","coordinates":[16.97535,52.4223567]},"properties":{"name":"POZ38A","ref":"POZ38A","brand":"Paczkomat InPost","operator":"InPost","address":"","openingHours":"24/7","website":"https://inpost.pl/paczkomat-poznan-poz38a-glowna-paczkomaty-wielkopolskie"}},{"type":"Feature","geometry":{"type":"Point","coordinates":[16.8017062,52.4339337]},"properties":{"name":"","ref":"","brand":"PostInAir","operator":"PostInAir","address":"","openingHours":"24/7","website":""}},{"type":"Feature","geometry":{"type":"Point","coordinates":[16.9234869,52.4417869]},"properties":{"name":"AL118PO1","ref":"AL118PO1","brand":"Allegro One Box","operator":"UPS","address":"","openingHours":"24/7","website":""}},{"type":"Feature","geometry":{"type":"Point","coordinates":[16.9184214,52.4368028]},"properties":{"name":"POZ50N","ref":"POZ50N","brand":"Paczkomat InPost","operator":"InPost","address":"","openingHours":"24/7","website":"https://inpost.pl/paczkomat-poznan-poz50n-aleje-solidarnosci-paczkomaty-wielkopolskie"}},{"type":"Feature","geometry":{"type":"Point","coordinates":[16.865497,52.4226204]},"properties":{"name":"POZ08N","ref":"POZ08N","brand":"Paczkomat InPost","operator":"InPost","address":"","openingHours":"24/7","website":""}},{"type":"Feature","geometry":{"type":"Point","coordinates":[16.8658442,52.352173]},"properties":{"name":"","ref":"","brand":"Paczkomat InPost","operator":"InPost","address":"","openingHours":"24/7","website":"https://inpost.pl/paczkomat-lubon-lbo23m-kosciuszki-paczkomaty-wielkopolskie"}},{"type":"Feature","geometry":{"type":"Point","coordinates":[16.9687736,52.3996685]},"properties":{"name":"POZ11A","ref":"POZ11A","brand":"Paczkomat InPost","operator":"InPost","address":"","openingHours":"24/7","website":"https://inpost.pl/paczkomat-poznan-poz11a-abpbaraniaka-paczkomaty-wielkopolskie"}},{"type":"Feature","geometry":{"type":"Point","coordinates":[16.986958,52.3911967]},"properties":{"name":"POZ01M","ref":"POZ01M","brand":"Paczkomat InPost","operator":"InPost","address":"","openingHours":"24/7","website":"https://inpost.pl/paczkomat-poznan-poz01m-os-rusa-paczkomaty-wielkopolskie"}},{"type":"Feature","geometry":{"type":"Point","coordinates":[16.9811265,52.3916294]},"properties":{"name":"POZ48N","ref":"POZ48N","brand":"Paczkomat InPost","operator":"InPost","address":"","openingHours":"24/7","website":"https://inpost.pl/paczkomat-poznan-poz48n-chartowo-paczkomaty-wielkopolskie"}},{"type":"Feature","geometry":{"type":"Point","coordinates":[16.8474355,52.3817118]},"properties":{"name":"POZ01N","ref":"POZ01N","brand":"Paczkomat InPost","operator":"InPost","address":"","openingHours":"24/7","website":""}},{"type":"Feature","geometry":{"type":"Point","coordinates":[16.9572578,52.3766112]},"properties":{"name":"POZ34A","ref":"POZ34A","brand":"Paczkomat InPost","operator":"InPost","address":"","openingHours":"24/7","website":""}},{"type":"Feature","geometry":{"type":"Point","coordinates":[16.9100342,52.3770602]},"properties":{"name":"POZ59N","ref":"POZ59N","brand":"Paczkomat InPost","operator":"InPost","address":"","openingHours":"24/7","website":"https://inpost.pl/paczkomat-poznan-poz59n-wspolna-paczkomaty-wielkopolskie"}},{"type":"Feature","geometry":{"type":"Point","coordinates":[16.9750952,52.3905203]},"properties":{"name":"POZ02M","ref":"POZ02M","brand":"Paczkomat InPost","operator":"InPost","address":"","openingHours":"24/7","website":""}},{"type":"Feature","geometry":{"type":"Point","coordinates":[17.0243329,52.4077339]},"properties":{"name":"POZ42N","ref":"POZ42N","brand":"Paczkomat InPost","operator":"InPost","address":"","openingHours":"24/7","website":"https://inpost.pl/paczkomat-poznan-poz42n-leszka-paczkomaty-wielkopolskie"}},{"type":"Feature","geometry":{"type":"Point","coordinates":[16.9407991,52.4627707]},"properties":{"name":"POZ32N","ref":"POZ32N","brand":"Paczkomat InPost","operator":"InPost","address":"","openingHours":"24/7","website":""}},{"type":"Feature","geometry":{"type":"Point","coordinates":[16.9849332,52.4527292]},"properties":{"name":"KOG02M","ref":"KOG02M","brand":"Paczkomat InPost","operator":"InPost","address":"","openingHours":"24/7","website":"https://inpost.pl/paczkomat-kozieglowy-kog02m-gdynska-paczkomaty-wielkopolskie"}},{"type":"Feature","geometry":{"type":"Point","coordinates":[16.9683686,52.4195509]},"properties":{"name":"POZ39M","ref":"POZ39M","brand":"Paczkomat InPost","operator":"InPost","address":"","openingHours":"24/7","website":""}},{"type":"Feature","geometry":{"type":"Point","coordinates":[16.969464,52.4210257]},"properties":{"name":"POZ65N","ref":"POZ65N","brand":"Paczkomat InPost","operator":"InPost","address":"","openingHours":"24/7","website":"https://inpost.pl/paczkomat-poznan-poz65n-glowna-paczkomaty-wielkopolskie"}},{"type":"Feature","geometry":{"type":"Point","coordinates":[16.9037238,52.3575898]},"properties":{"name":"POZ20M","ref":"POZ20M","brand":"Paczkomat InPost","operator":"InPost","address":"","openingHours":"24/7","website":""}},{"type":"Feature","geometry":{"type":"Point","coordinates":[16.9004528,52.3699941]},"properties":{"name":"POZ18B","ref":"POZ18B","brand":"Paczkomat InPost","operator":"InPost","address":"","openingHours":"24/7","website":""}},{"type":"Feature","geometry":{"type":"Point","coordinates":[16.8872769,52.3675313]},"properties":{"name":"POZ10N","ref":"POZ10N","brand":"Paczkomat InPost","operator":"InPost","address":"","openingHours":"24/7","website":"https://inpost.pl/paczkomat-poznan-poz10n-kwiatkowskiego-paczkomaty-wielkopolskie"}},{"type":"Feature","geometry":{"type":"Point","coordinates":[16.8758278,52.3698194]},"properties":{"name":"POZ12ML","ref":"POZ12ML","brand":"Paczkomat InPost","operator":"InPost","address":"","openingHours":"24/7","website":"https://inpost.pl/paczkomat-poznan-poz12ml-pszczynska-paczkomaty-wielkopolskie"}},{"type":"Feature","geometry":{"type":"Point","coordinates":[16.8814813,52.3774053]},"properties":{"name":"POZ23N","ref":"POZ23N","brand":"Paczkomat InPost","operator":"InPost","address":"","openingHours":"24/7","website":""}},{"type":"Feature","geometry":{"type":"Point","coordinates":[16.9048346,52.3665168]},"properties":{"name":"POZ06M","ref":"POZ06M","brand":"Paczkomat InPost","operator":"InPost","address":"","openingHours":"24/7","website":""}},{"type":"Feature","geometry":{"type":"Point","coordinates":[16.9073166,52.3626662]},"properties":{"name":"POZ173M","ref":"POZ173M","brand":"Paczkomat InPost","operator":"InPost","address":"","openingHours":"24/7","website":""}},{"type":"Feature","geometry":{"type":"Point","coordinates":[17.0174599,52.3610364]},"properties":{"name":"POZ15N","ref":"POZ15N","brand":"Paczkomat InPost","operator":"InPost","address":"","openingHours":"24/7","website":""}},{"type":"Feature","geometry":{"type":"Point","coordinates":[16.9487791,52.4289051]},"properties":{"name":"POZ12M","ref":"POZ12M","brand":"Paczkomat InPost","operator":"InPost","address":"","openingHours":"24/7","website":"https://inpost.pl/paczkomat-poznan-poz12m-wilczak-paczkomaty-wielkopolskie"}},{"type":"Feature","geometry":{"type":"Point","coordinates":[16.9505833,52.4320227]},"properties":{"name":"POZ25A","ref":"POZ25A","brand":"Paczkomat InPost","operator":"InPost","address":"","openingHours":"24/7","website":"https://inpost.pl/paczkomat-poznan-poz25a-serbska-paczkomaty-wielkopolskie"}},{"type":"Feature","geometry":{"type":"Point","coordinates":[16.9437217,52.4358815]},"properties":{"name":"POZ15M","ref":"POZ15M","brand":"Paczkomat InPost","operator":"InPost","address":"","openingHours":"24/7","website":"https://inpost.pl/paczkomat-poznan-poz15m-zytnia-paczkomaty-wielkopolskie"}},{"type":"Feature","geometry":{"type":"Point","coordinates":[16.9480728,52.4427776]},"properties":{"name":"POZ42M","ref":"POZ42M","brand":"Paczkomat InPost","operator":"InPost","address":"","openingHours":"24/7","website":"https://inpost.pl/paczkomat-poznan-poz42m-naramowicka-paczkomaty-wielkopolskie"}},{"type":"Feature","geometry":{"type":"Point","coordinates":[16.9935328,52.3930139]},"properties":{"name":"POZ31M","ref":"POZ31M","brand":"Paczkomat InPost","operator":"InPost","address":"","openingHours":"24/7","website":"https://inpost.pl/paczkomat-poznan-poz31m-dymka-paczkomaty-wielkopolskie"}},{"type":"Feature","geometry":{"type":"Point","coordinates":[17.0145125,52.4558459]},"properties":{"name":"KCI01M","ref":"KCI01M","brand":"Paczkomat InPost","operator":"InPost","address":"","openingHours":"24/7","website":"https://inpost.pl/paczkomat-kicin-kci01m-poznanska-paczkomaty-wielkopolskie"}},{"type":"Feature","geometry":{"type":"Point","coordinates":[16.9398344,52.4111118]},"properties":{"name":"POZ34N","ref":"POZ34N","brand":"Paczkomat InPost","operator":"InPost","address":"","openingHours":"24/7","website":""}},{"type":"Feature","geometry":{"type":"Point","coordinates":[16.8657168,52.3976667]},"properties":{"name":"","ref":"","brand":"Paczkomat InPost","operator":"InPost","address":"","openingHours":"24/7","website":"https://inpost.pl/paczkomat-poznan-poz43a-podkomorska-paczkomaty-wielkopolskie"}},{"type":"Feature","geometry":{"type":"Point","coordinates":[16.8707699,52.3501948]},"properties":{"name":"LBO01M","ref":"LBO01M","brand":"Paczkomat InPost","operator":"InPost","address":"","openingHours":"24/7","website":""}},{"type":"Feature","geometry":{"type":"Point","coordinates":[16.8402096,52.3531987]},"properties":{"name":"POZ19N","ref":"POZ19N","brand":"Paczkomat InPost","operator":"InPost","address":"","openingHours":"24/7","website":""}},{"type":"Feature","geometry":{"type":"Point","coordinates":[16.9944501,52.3566738]},"properties":{"name":"","ref":"","brand":"Paczkomat InPost","operator":"InPost","address":"","openingHours":"24/7","website":""}},{"type":"Feature","geometry":{"type":"Point","coordinates":[16.8242763,52.4312111]},"properties":{"name":"POZ36M","ref":"POZ36M","brand":"Paczkomat InPost","operator":"InPost","address":"","openingHours":"24/7","website":""}},{"type":"Feature","geometry":{"type":"Point","coordinates":[16.8240341,52.4310434]},"properties":{"name":"POZ03N","ref":"POZ03N","brand":"Paczkomat InPost","operator":"InPost","address":"","openingHours":"24/7","website":""}},{"type":"Feature","geometry":{"type":"Point","coordinates":[16.8436904,52.3867573]},"properties":{"name":"POZ45N","ref":"POZ45N","brand":"Paczkomat InPost","operator":"InPost","address":"","openingHours":"24/7","website":"https://inpost.pl/paczkomat-poznan-poz45n-grunwaldzka-paczkomaty-wielkopolskie"}},{"type":"Feature","geometry":{"type":"Point","coordinates":[16.8137991,52.3696087]},"properties":{"name":"PLW01A","ref":"PLW01A","brand":"Paczkomat InPost","operator":"InPost","address":"","openingHours":"24/7","website":"https://inpost.pl/paczkomat-plewiska-plw01a-grunwaldzka-paczkomaty-wielkopolskie"}},{"type":"Feature","geometry":{"type":"Point","coordinates":[16.9232003,52.4487482]},"properties":{"name":"POZ52A","ref":"POZ52A","brand":"Paczkomat InPost","operator":"InPost","address":"","openingHours":"24/7","website":"https://inpost.pl/paczkomat-poznan-poz52a-wachowiaka-paczkomaty-wielkopolskie"}},{"type":"Feature","geometry":{"type":"Point","coordinates":[16.9399523,52.4383683]},"properties":{"name":"POZ61M","ref":"POZ61M","brand":"Paczkomat InPost","operator":"InPost","address":"","openingHours":"24/7","website":""}},{"type":"Feature","geometry":{"type":"Point","coordinates":[16.9509756,52.4473594]},"properties":{"name":"Pakomatic","ref":"","brand":"","operator":"","address":"","openingHours":"24/7","website":""}},{"type":"Feature","geometry":{"type":"Point","coordinates":[16.9513638,52.3994519]},"properties":{"name":"POZ64M","ref":"POZ64M","brand":"Paczkomat InPost","operator":"InPost","address":"","openingHours":"24/7","website":"https://inpost.pl/paczkomat-poznan-poz64m-kornicka-paczkomaty-wielkopolskie"}},{"type":"Feature","geometry":{"type":"Point","coordinates":[16.9488629,52.3969157]},"properties":{"name":"POZ23A","ref":"POZ23A","brand":"Paczkomat InPost","operator":"InPost","address":"","openingHours":"24/7","website":"https://inpost.pl/paczkomat-poznan-poz23a-rondo-rataje-paczkomaty-wielkopolskie"}},{"type":"Feature","geometry":{"type":"Point","coordinates":[16.98366,52.37729]},"properties":{"name":"POZ66N","ref":"POZ66N","brand":"Paczkomat InPost","operator":"InPost","address":"","openingHours":"24/7","website":""}},{"type":"Feature","geometry":{"type":"Point","coordinates":[16.993304,52.4486552]},"properties":{"name":"POZ15A","ref":"POZ15A","brand":"Paczkomat InPost","operator":"InPost","address":"","openingHours":"24/7","website":"https://inpost.pl/paczkomat-kozieglowy-poz15a-os-lesne-paczkomaty-wielkopolskie"}},{"type":"Feature","geometry":{"type":"Point","coordinates":[16.8319067,52.4126786]},"properties":{"name":"POZ47N","ref":"POZ47N","brand":"Paczkomat InPost","operator":"InPost","address":"","openingHours":"24/7","website":"https://inpost.pl/paczkomat-poznan-poz47n-zlotowska-paczkomaty-wielkopolskie"}},{"type":"Feature","geometry":{"type":"Point","coordinates":[16.8927783,52.3902952]},"properties":{"name":"POZ91M","ref":"POZ91M","brand":"Paczkomat InPost","operator":"InPost","address":"","openingHours":"24/7","website":""}},{"type":"Feature","geometry":{"type":"Point","coordinates":[16.8618404,52.3820561]},"properties":{"name":"POZ51A","ref":"POZ51A","brand":"Paczkomat InPost","operator":"InPost","address":"","openingHours":"24/7","website":"https://inpost.pl/paczkomat-poznan-poz51a-kacza-paczkomaty-wielkopolskie"}},{"type":"Feature","geometry":{"type":"Point","coordinates":[16.9465631,52.4555719]},"properties":{"name":"POZ09M","ref":"POZ09M","brand":"Paczkomat InPost","operator":"InPost","address":"","openingHours":"24/7","website":"https://inpost.pl/paczkomat-poznan-poz09m-blazeja-paczkomaty-wielkopolskie"}},{"type":"Feature","geometry":{"type":"Point","coordinates":[16.96133,52.4445542]},"properties":{"name":"POZ85M","ref":"POZ85M","brand":"Paczkomat InPost","operator":"InPost","address":"","openingHours":"24/7","website":"https://inpost.pl/paczkomat-poznan-poz85m-karpia-paczkomaty-wielkopolskie"}},{"type":"Feature","geometry":{"type":"Point","coordinates":[16.9478069,52.4611238]},"properties":{"name":"POZ18N","ref":"POZ18N","brand":"Paczkomat InPost","operator":"InPost","address":"","openingHours":"24/7","website":"https://inpost.pl/paczkomat-poznan-poz18n-naramowicka-paczkomaty-wielkopolskie"}},{"type":"Feature","geometry":{"type":"Point","coordinates":[16.8659978,52.4614616]},"properties":{"name":"","ref":"","brand":"Paczkomat InPost","operator":"InPost","address":"","openingHours":"24/7","website":""}},{"type":"Feature","geometry":{"type":"Point","coordinates":[16.8931682,52.3992503]},"properties":{"name":"POZ49M","ref":"POZ49M","brand":"Paczkomat InPost","operator":"InPost","address":"","openingHours":"24/7","website":"https://inpost.pl/paczkomat-poznan-poz49m-stanislawa-wyspianskiego-paczkomaty-wielkopolskie"}},{"type":"Feature","geometry":{"type":"Point","coordinates":[16.9289907,52.3916083]},"properties":{"name":"","ref":"","brand":"Paczkomat InPost","operator":"InPost","address":"","openingHours":"24/7","website":"https://inpost.pl/paczkomat-poznan-poz283m-o-mariana-zelazka-paczkomaty-wielkopolskie"}},{"type":"Feature","geometry":{"type":"Point","coordinates":[16.8892009,52.405289]},"properties":{"name":"POZ04M","ref":"POZ04M","brand":"Paczkomat InPost","operator":"InPost","address":"","openingHours":"24/7","website":"https://inpost.pl/paczkomat-poznan-poz04m-przybyszewskiego-paczkomaty-wielkopolskie"}},{"type":"Feature","geometry":{"type":"Point","coordinates":[16.8891462,52.4065826]},"properties":{"name":"POZ22A","ref":"POZ22A","brand":"Paczkomat InPost","operator":"InPost","address":"","openingHours":"24/7","website":"https://inpost.pl/paczkomat-poznan-poz22a-przybyszewskiego-paczkomaty-wielkopolskie"}},{"type":"Feature","geometry":{"type":"Point","coordinates":[16.8813735,52.3865535]},"properties":{"name":"","ref":"","brand":"Allegro One Box","operator":"UPS","address":"","openingHours":"24/7","website":"https://allegro.pl/kampania/one/znajdz-nas?pointId=997367"}},{"type":"Feature","geometry":{"type":"Point","coordinates":[16.8882298,52.3887545]},"properties":{"name":"","ref":"","brand":"Paczkomat InPost","operator":"InPost","address":"","openingHours":"24/7","website":""}},{"type":"Feature","geometry":{"type":"Point","coordinates":[16.8806514,52.4448123]},"properties":{"name":"","ref":"","brand":"Paczkomat InPost","operator":"InPost","address":"","openingHours":"24/7","website":"https://inpost.pl/paczkomat-poznan-poz63m-teokryta-paczkomaty-wielkopolskie"}},{"type":"Feature","geometry":{"type":"Point","coordinates":[16.8854444,52.3883322]},"properties":{"name":"","ref":"","brand":"Paczkomat InPost","operator":"InPost","address":"","openingHours":"24/7","website":"https://inpost.pl/paczkomat-poznan-poz40m-palacza-paczkomaty-wielkopolskie"}},{"type":"Feature","geometry":{"type":"Point","coordinates":[16.9172134,52.4284479]},"properties":{"name":"POZ30N","ref":"POZ30N","brand":"Paczkomat InPost","operator":"InPost","address":"","openingHours":"24/7","website":"https://inpost.pl/paczkomat-poznan-poz30n-piatkowska-paczkomaty-wielkopolskie"}},{"type":"Feature","geometry":{"type":"Point","coordinates":[16.8162649,52.3601939]},"properties":{"name":"PLW02M","ref":"PLW02M","brand":"Paczkomat InPost","operator":"InPost","address":"","openingHours":"24/7","website":"https://inpost.pl/paczkomat-plewiska-plw02m-poranna-paczkomaty-wielkopolskie"}},{"type":"Feature","geometry":{"type":"Point","coordinates":[16.9211836,52.4438096]},"properties":{"name":"POZ38M","ref":"POZ38M","brand":"Paczkomat InPost","operator":"InPost","address":"","openingHours":"24/7","website":""}},{"type":"Feature","geometry":{"type":"Point","coordinates":[16.9614293,52.4446727]},"properties":{"name":"","ref":"","brand":"biospace","operator":"biospace","address":"","openingHours":"24/7","website":""}},{"type":"Feature","geometry":{"type":"Point","coordinates":[16.8458251,52.3686309]},"properties":{"name":"","ref":"","brand":"Paczkomat InPost","operator":"InPost","address":"","openingHours":"24/7","website":"https://inpost.pl/paczkomat-poznan-poz35m-fabianowo-paczkomaty-wielkopolskie"}},{"type":"Feature","geometry":{"type":"Point","coordinates":[16.9648029,52.4201367]},"properties":{"name":"POZ143M","ref":"POZ143M","brand":"Paczkomat InPost","operator":"InPost","address":"","openingHours":"24/7","website":"https://inpost.pl/paczkomat-poznan-poz143m-studzienna-paczkomaty-wielkopolskie"}},{"type":"Feature","geometry":{"type":"Point","coordinates":[16.9034006,52.3715666]},"properties":{"name":"POZ117M","ref":"POZ117M","brand":"Paczkomat InPost","operator":"InPost","address":"","openingHours":"24/7","website":""}},{"type":"Feature","geometry":{"type":"Point","coordinates":[16.9202209,52.4003215]},"properties":{"name":"AL001PO1","ref":"AL001PO1","brand":"Allegro One Box","operator":"UPS","address":"","openingHours":"24/7","website":""}},{"type":"Feature","geometry":{"type":"Point","coordinates":[17.0083906,52.4101331]},"properties":{"name":"","ref":"","brand":"Orlen Paczka","operator":"Orlen","address":"","openingHours":"24/7","website":""}},{"type":"Feature","geometry":{"type":"Point","coordinates":[16.9856738,52.4101599]},"properties":{"name":"POZ146M","ref":"POZ146M","brand":"Paczkomat InPost","operator":"InPost","address":"","openingHours":"24/7","website":"https://inpost.pl/paczkomat-poznan-poz146m-warszawska-paczkomaty-wielkopolskie"}},{"type":"Feature","geometry":{"type":"Point","coordinates":[16.9844694,52.4090896]},"properties":{"name":"POZ17N","ref":"POZ17N","brand":"Paczkomat InPost","operator":"InPost","address":"","openingHours":"24/7","website":"https://inpost.pl/paczkomat-poznan-poz17n-nowogrodzka-paczkomaty-wielkopolskie"}},{"type":"Feature","geometry":{"type":"Point","coordinates":[16.9827121,52.4124553]},"properties":{"name":"","ref":"","brand":"Paczkomat InPost","operator":"InPost","address":"","openingHours":"24/7","website":""}},{"type":"Feature","geometry":{"type":"Point","coordinates":[16.974027,52.408076]},"properties":{"name":"POZ126M","ref":"POZ126M","brand":"Paczkomat InPost","operator":"InPost","address":"","openingHours":"24/7","website":"https://inpost.pl/paczkomat-poznan-poz126m-termalna-paczkomaty-wielkopolskie"}},{"type":"Feature","geometry":{"type":"Point","coordinates":[16.8018755,52.3944753]},"properties":{"name":"SKW02A","ref":"SKW02A","brand":"Paczkomat InPost","operator":"InPost","address":"","openingHours":"24/7","website":""}},{"type":"Feature","geometry":{"type":"Point","coordinates":[17.0226834,52.4055414]},"properties":{"name":"POZ206M","ref":"POZ206M","brand":"Paczkomat InPost","operator":"InPost","address":"","openingHours":"24/7","website":"https://inpost.pl/paczkomat-poznan-poz206m-browarna-paczkomaty-wielkopolskie"}},{"type":"Feature","geometry":{"type":"Point","coordinates":[16.8092684,52.3679102]},"properties":{"name":"PLW06M","ref":"PLW06M","brand":"Paczkomat InPost","operator":"InPost","address":"","openingHours":"24/7","website":"https://inpost.pl/paczkomat-plewiska-plw06m-grunwaldzka-paczkomaty-wielkopolskie"}},{"type":"Feature","geometry":{"type":"Point","coordinates":[16.8686732,52.4662513]},"properties":{"name":"","ref":"","brand":"Paczkomat InPost","operator":"InPost","address":"","openingHours":"24/7","website":""}},{"type":"Feature","geometry":{"type":"Point","coordinates":[16.9084697,52.4246926]},"properties":{"name":"","ref":"","brand":"Paczkomat InPost","operator":"InPost","address":"","openingHours":"24/7","website":""}},{"type":"Feature","geometry":{"type":"Point","coordinates":[16.9967008,52.447185]},"properties":{"name":"KOG03M","ref":"KOG03M","brand":"Paczkomat InPost","operator":"InPost","address":"","openingHours":"24/7","website":"https://inpost.pl/paczkomat-kozieglowy-kog03m-krotka-paczkomaty-wielkopolskie"}},{"type":"Feature","geometry":{"type":"Point","coordinates":[16.9847745,52.4482583]},"properties":{"name":"KOG04M","ref":"KOG04M","brand":"Paczkomat InPost","operator":"InPost","address":"","openingHours":"24/7","website":"https://inpost.pl/paczkomat-kozieglowy-kog04m-gdynska-paczkomaty-wielkopolskie"}},{"type":"Feature","geometry":{"type":"Point","coordinates":[16.8213549,52.3857256]},"properties":{"name":"","ref":"","brand":"Paczkomat InPost","operator":"InPost","address":"","openingHours":"24/7","website":""}},{"type":"Feature","geometry":{"type":"Point","coordinates":[16.9482008,52.3699191]},"properties":{"name":"","ref":"","brand":"Paczkomat InPost","operator":"InPost","address":"","openingHours":"24/7","website":""}},{"type":"Feature","geometry":{"type":"Point","coordinates":[17.0129715,52.4669687]},"properties":{"name":"KCI02M","ref":"KCI02M","brand":"Paczkomat InPost","operator":"InPost","address":"","openingHours":"24/7","website":"https://inpost.pl/paczkomat-kicin-kci02m-nowe-osiedle-paczkomaty-wielkopolskie"}},{"type":"Feature","geometry":{"type":"Point","coordinates":[16.9523081,52.4117099]},"properties":{"name":"POZ281M","ref":"POZ281M","brand":"Paczkomat InPost","operator":"InPost","address":"","openingHours":"24/7","website":"https://inpost.pl/paczkomat-poznan-poz281m-ostrowek-paczkomaty-wielkopolskie"}},{"type":"Feature","geometry":{"type":"Point","coordinates":[16.9365184,52.4001477]},"properties":{"name":"POZ286M","ref":"POZ286M","brand":"Paczkomat InPost","operator":"InPost","address":"","openingHours":"24/7","website":""}},{"type":"Feature","geometry":{"type":"Point","coordinates":[17.0106491,52.4078618]},"properties":{"name":"POZ223M","ref":"POZ223M","brand":"Paczkomat InPost","operator":"InPost","address":"","openingHours":"24/7","website":"https://inpost.pl/paczkomat-poznan-poz223m-zdzislawy-paczkomaty-wielkopolskie"}},{"type":"Feature","geometry":{"type":"Point","coordinates":[16.9543177,52.4453416]},"properties":{"name":"POZ247M","ref":"POZ247M","brand":"Paczkomat InPost","operator":"InPost","address":"","openingHours":"24/7","website":""}},{"type":"Feature","geometry":{"type":"Point","coordinates":[16.9540916,52.4462421]},"properties":{"name":"POZ224M","ref":"POZ224M","brand":"Paczkomat InPost","operator":"InPost","address":"","openingHours":"24/7","website":""}},{"type":"Feature","geometry":{"type":"Point","coordinates":[16.9481613,52.4499451]},"properties":{"name":"POZ165M","ref":"POZ165M","brand":"Paczkomat InPost","operator":"InPost","address":"","openingHours":"24/7","website":"https://inpost.pl/paczkomat-poznan-poz165m-rubiez-paczkomaty-wielkopolskie"}},{"type":"Feature","geometry":{"type":"Point","coordinates":[16.8496382,52.4297903]},"properties":{"name":"POZ05B","ref":"POZ05B","brand":"Paczkomat InPost","operator":"InPost","address":"","openingHours":"24/7","website":""}},{"type":"Feature","geometry":{"type":"Point","coordinates":[16.9476644,52.4365156]},"properties":{"name":"AL038PO1","ref":"AL038PO1","brand":"Allegro One Box","operator":"UPS","address":"","openingHours":"24/7","website":"https://allegro.pl/kampania/one/znajdz-nas?pointId=780785"}},{"type":"Feature","geometry":{"type":"Point","coordinates":[16.9477375,52.4358815]},"properties":{"name":"","ref":"","brand":"Orlen Paczka","operator":"Orlen","address":"","openingHours":"24/7","website":""}},{"type":"Feature","geometry":{"type":"Point","coordinates":[16.9242159,52.4254]},"properties":{"name":"","ref":"","brand":"Allegro One Box","operator":"UPS","address":"","openingHours":"24/7","website":"https://allegro.pl/kampania/one/znajdz-nas?pointId=827010"}},{"type":"Feature","geometry":{"type":"Point","coordinates":[16.8838565,52.4135449]},"properties":{"name":"POZ29N","ref":"POZ29N","brand":"Paczkomat InPost","operator":"InPost","address":"","openingHours":"24/7","website":"https://inpost.pl/paczkomat-poznan-poz29n-szamarzewskiego-paczkomaty-wielkopolskie"}},{"type":"Feature","geometry":{"type":"Point","coordinates":[16.9967285,52.4470708]},"properties":{"name":"","ref":"","brand":"Orlen Paczka","operator":"Orlen","address":"","openingHours":"24/7","website":""}},{"type":"Feature","geometry":{"type":"Point","coordinates":[16.9380925,52.433795]},"properties":{"name":"AL019PO1","ref":"AL019PO1","brand":"Allegro One Box","operator":"UPS","address":"","openingHours":"24/7","website":"https://allegro.pl/kampania/one/znajdz-nas?pointId=838028"}},{"type":"Feature","geometry":{"type":"Point","coordinates":[16.8794849,52.4069269]},"properties":{"name":"POZ67M","ref":"POZ67M","brand":"Paczkomat InPost","operator":"InPost","address":"","openingHours":"24/7","website":""}},{"type":"Feature","geometry":{"type":"Point","coordinates":[16.8653496,52.405686]},"properties":{"name":"POZ17B","ref":"POZ17B","brand":"Paczkomat InPost","operator":"InPost","address":"","openingHours":"24/7","website":""}},{"type":"Feature","geometry":{"type":"Point","coordinates":[16.964264,52.400824]},"properties":{"name":"POZ100M","ref":"POZ100M","brand":"Paczkomat InPost","operator":"InPost","address":"","openingHours":"24/7","website":"https://inpost.pl/paczkomat-poznan-poz100m-baraniaka-paczkomaty-wielkopolskie"}},{"type":"Feature","geometry":{"type":"Point","coordinates":[16.8851562,52.400573]},"properties":{"name":"AL032PO1","ref":"AL032PO1","brand":"Allegro One Box","operator":"UPS","address":"","openingHours":"24/7","website":"https://allegro.pl/kampania/one/znajdz-nas?pointId=781630"}},{"type":"Feature","geometry":{"type":"Point","coordinates":[16.8609941,52.3940597]},"properties":{"name":"","ref":"","brand":"Allegro One Box","operator":"UPS","address":"","openingHours":"24/7","website":""}},{"type":"Feature","geometry":{"type":"Point","coordinates":[16.8318963,52.3820832]},"properties":{"name":"","ref":"","brand":"Paczkomat InPost","operator":"InPost","address":"","openingHours":"24/7","website":"https://inpost.pl/paczkomat-poznan-poz10l-grunwaldzka-paczkomaty-wielkopolskie"}},{"type":"Feature","geometry":{"type":"Point","coordinates":[16.9895648,52.443612]},"properties":{"name":"AL008PZ1","ref":"AL008PZ1","brand":"Allegro One Box","operator":"UPS","address":"","openingHours":"24/7","website":""}},{"type":"Feature","geometry":{"type":"Point","coordinates":[16.9624548,52.3992687]},"properties":{"name":"POZ147M","ref":"POZ147M","brand":"Paczkomat InPost","operator":"InPost","address":"","openingHours":"24/7","website":"https://inpost.pl/paczkomat-poznan-poz147m-katowicka-paczkomaty-wielkopolskie"}},{"type":"Feature","geometry":{"type":"Point","coordinates":[17.026448,52.3507989]},"properties":{"name":"POZ50M","ref":"POZ50M","brand":"Paczkomat InPost","operator":"InPost","address":"","openingHours":"24/7","website":"https://inpost.pl/paczkomat-poznan-poz50m-gminna-paczkomaty-wielkopolskie"}},{"type":"Feature","geometry":{"type":"Point","coordinates":[16.8713045,52.4030789]},"properties":{"name":"POZ56A","ref":"POZ56A","brand":"Paczkomat InPost","operator":"InPost","address":"","openingHours":"24/7","website":""}},{"type":"Feature","geometry":{"type":"Point","coordinates":[17.0241128,52.3628629]},"properties":{"name":"POZ132M","ref":"POZ132M","brand":"Paczkomat InPost","operator":"InPost","address":"","openingHours":"24/7","website":"https://inpost.pl/paczkomat-poznan-poz132m-sowice-paczkomaty-wielkopolskie"}},{"type":"Feature","geometry":{"type":"Point","coordinates":[16.9272034,52.4353022]},"properties":{"name":"POZ10B","ref":"POZ10B","brand":"Paczkomat InPost","operator":"InPost","address":"","openingHours":"24/7","website":"https://inpost.pl/paczkomat-poznan-poz10b-al-solidarnosci-paczkomaty-wielkopolskie"}},{"type":"Feature","geometry":{"type":"Point","coordinates":[16.9901813,52.4478982]},"properties":{"name":"KOG05M","ref":"KOG05M","brand":"Paczkomat InPost","operator":"InPost","address":"","openingHours":"24/7","website":"https://inpost.pl/paczkomat-kozieglowy-kog05m-pilsudskiego-paczkomaty-wielkopolskie"}},{"type":"Feature","geometry":{"type":"Point","coordinates":[16.9651279,52.4185084]},"properties":{"name":"POZ200M","ref":"POZ200M","brand":"Paczkomat InPost","operator":"InPost","address":"","openingHours":"24/7","website":"https://inpost.pl/paczkomat-poznan-poz200m-glowna-paczkomaty-wielkopolskie"}},{"type":"Feature","geometry":{"type":"Point","coordinates":[16.8328813,52.3526108]},"properties":{"name":"","ref":"","brand":"Szybkomat Leroy Merlin","operator":"Leroy Merlin","address":"","openingHours":"24/7","website":""}},{"type":"Feature","geometry":{"type":"Point","coordinates":[16.8457012,52.3580632]},"properties":{"name":"","ref":"","brand":"Megaskrytka Agata Meble","operator":"Agata Meble","address":"","openingHours":"24/7","website":""}},{"type":"Feature","geometry":{"type":"Point","coordinates":[16.9794809,52.4259636]},"properties":{"name":"AL005PZ1","ref":"AL005PZ1","brand":"Allegro One Box","operator":"UPS","address":"","openingHours":"24/7","website":"https://allegro.pl/kampania/one/znajdz-nas?pointId=750769"}},{"type":"Feature","geometry":{"type":"Point","coordinates":[16.9755229,52.4219384]},"properties":{"name":"APM 610076","ref":"APM 610076","brand":"Orlen Paczka","operator":"Orlen","address":"","openingHours":"24/7","website":""}},{"type":"Feature","geometry":{"type":"Point","coordinates":[16.9831227,52.461436]},"properties":{"name":"APM 856915","ref":"APM 856915","brand":"Orlen Paczka","operator":"Orlen","address":"","openingHours":"24/7","website":""}},{"type":"Feature","geometry":{"type":"Point","coordinates":[16.903973,52.4092722]},"properties":{"name":"POZ01H","ref":"POZ01H","brand":"Paczkomat InPost","operator":"InPost","address":"","openingHours":"24/7","website":""}},{"type":"Feature","geometry":{"type":"Point","coordinates":[16.8970776,52.4112897]},"properties":{"name":"AL045PO1","ref":"AL045PO1","brand":"Allegro One Box","operator":"UPS","address":"","openingHours":"24/7","website":"https://allegro.pl/kampania/one/znajdz-nas?pointId=780728"}},{"type":"Feature","geometry":{"type":"Point","coordinates":[16.9710633,52.3917108]},"properties":{"name":"","ref":"","brand":"Paczkomat InPost","operator":"InPost","address":"","openingHours":"24/7","website":"https://inpost.pl/paczkomat-poznan-poz301m-os-lecha-paczkomaty-wielkopolskie"}},{"type":"Feature","geometry":{"type":"Point","coordinates":[16.8749576,52.4054425]},"properties":{"name":"POZ202M","ref":"POZ202M","brand":"Paczkomat InPost","operator":"InPost","address":"","openingHours":"24/7","website":"https://inpost.pl/paczkomat-poznan-poz202m-grochowska-paczkomaty-wielkopolskie"}},{"type":"Feature","geometry":{"type":"Point","coordinates":[16.8738565,52.4044707]},"properties":{"name":"AL111PO1","ref":"AL111PO1","brand":"Allegro One Box","operator":"UPS","address":"","openingHours":"24/7","website":""}},{"type":"Feature","geometry":{"type":"Point","coordinates":[16.9870194,52.3807832]},"properties":{"name":"AL050PO2","ref":"AL050PO2","brand":"Allegro One Box","operator":"UPS","address":"","openingHours":"24/7","website":"https://allegro.pl/kampania/one/znajdz-nas"}},{"type":"Feature","geometry":{"type":"Point","coordinates":[16.9366228,52.434057]},"properties":{"name":"","ref":"","brand":"Castomat","operator":"Castorama","address":"","openingHours":"24/7","website":""}},{"type":"Feature","geometry":{"type":"Point","coordinates":[16.9691796,52.3997794]},"properties":{"name":"POZ227M","ref":"POZ227M","brand":"Paczkomat InPost","operator":"InPost","address":"","openingHours":"24/7","website":"https://inpost.pl/paczkomat-poznan-poz227m-wolkowyska-paczkomaty-wielkopolskie"}},{"type":"Feature","geometry":{"type":"Point","coordinates":[16.981564,52.3928043]},"properties":{"name":"PL82493","ref":"PL82493","brand":"DPD Pickup Station","operator":"DPD","address":"","openingHours":"24/7","website":"https://www.dpd.com/pl/pl/dpd-pickup/znajdz-punkt-pickup/"}},{"type":"Feature","geometry":{"type":"Point","coordinates":[16.829302,52.4116557]},"properties":{"name":"","ref":"","brand":"Orlen Paczka","operator":"Orlen","address":"","openingHours":"24/7","website":""}},{"type":"Feature","geometry":{"type":"Point","coordinates":[16.9471237,52.4440271]},"properties":{"name":"AL095PO1","ref":"AL095PO1","brand":"Allegro One Box","operator":"UPS","address":"","openingHours":"24/7","website":""}},{"type":"Feature","geometry":{"type":"Point","coordinates":[16.8093359,52.3668511]},"properties":{"name":"","ref":"","brand":"Paczkomat InPost","operator":"InPost","address":"","openingHours":"24/7","website":""}},{"type":"Feature","geometry":{"type":"Point","coordinates":[16.9249397,52.3919341]},"properties":{"name":"","ref":"","brand":"Paczkomat InPost","operator":"InPost","address":"","openingHours":"24/7","website":""}},{"type":"Feature","geometry":{"type":"Point","coordinates":[16.9250559,52.3923425]},"properties":{"name":"","ref":"","brand":"Allegro One Box","operator":"UPS","address":"","openingHours":"24/7","website":""}},{"type":"Feature","geometry":{"type":"Point","coordinates":[16.8685992,52.4411409]},"properties":{"name":"","ref":"","brand":"Paczkomat InPost","operator":"InPost","address":"","openingHours":"24/7","website":""}},{"type":"Feature","geometry":{"type":"Point","coordinates":[16.8698095,52.441328]},"properties":{"name":"Książkomat","ref":"","brand":"Biblioteka Raczyńskich","operator":"Biblioteka Raczyńskich","address":"","openingHours":"24/7","website":""}},{"type":"Feature","geometry":{"type":"Point","coordinates":[16.8937995,52.4490171]},"properties":{"name":"","ref":"","brand":"Paczkomat InPost","operator":"InPost","address":"","openingHours":"24/7","website":""}},{"type":"Feature","geometry":{"type":"Point","coordinates":[16.8901566,52.4464727]},"properties":{"name":"MainBox","ref":"","brand":"Spar","operator":"Spar","address":"","openingHours":"24/7","website":""}},{"type":"Feature","geometry":{"type":"Point","coordinates":[16.8891191,52.4461268]},"properties":{"name":"POZ171M","ref":"POZ171M","brand":"Paczkomat InPost","operator":"InPost","address":"","openingHours":"24/7","website":""}},{"type":"Feature","geometry":{"type":"Point","coordinates":[16.8897199,52.4474186]},"properties":{"name":"POZ243M","ref":"POZ243M","brand":"Paczkomat InPost","operator":"InPost","address":"","openingHours":"24/7","website":""}},{"type":"Feature","geometry":{"type":"Point","coordinates":[16.8877168,52.4511827]},"properties":{"name":"","ref":"","brand":"Paczkomat InPost","operator":"InPost","address":"","openingHours":"24/7","website":""}},{"type":"Feature","geometry":{"type":"Point","coordinates":[16.8269952,52.3854465]},"properties":{"name":"","ref":"","brand":"Orlen Paczka","operator":"Orlen","address":"","openingHours":"24/7","website":""}},{"type":"Feature","geometry":{"type":"Point","coordinates":[16.8227621,52.3757288]},"properties":{"name":"","ref":"","brand":"Orlen Paczka","operator":"Orlen","address":"","openingHours":"24/7","website":""}},{"type":"Feature","geometry":{"type":"Point","coordinates":[16.8425088,52.3863958]},"properties":{"name":"POZ111M","ref":"POZ111M","brand":"Paczkomat InPost","operator":"InPost","address":"","openingHours":"24/7","website":"https://inpost.pl/paczkomat-poznan-poz111m-maloszynska-paczkomaty-wielkopolskie"}},{"type":"Feature","geometry":{"type":"Point","coordinates":[16.8882472,52.3851914]},"properties":{"name":"","ref":"","brand":"Paczkomat InPost","operator":"InPost","address":"","openingHours":"24/7","website":"https://inpost.pl/paczkomat-poznan-poz234m-glogowska-paczkomaty-wielkopolskie"}},{"type":"Feature","geometry":{"type":"Point","coordinates":[16.9747813,52.3933248]},"properties":{"name":"POZ239M","ref":"POZ239M","brand":"Paczkomat InPost","operator":"InPost","address":"","openingHours":"24/7","website":"https://inpost.pl/paczkomat-poznan-poz239m-al-ks-m-radziejewskiego-paczkomaty-wielkopolskie"}},{"type":"Feature","geometry":{"type":"Point","coordinates":[16.8699327,52.406817]},"properties":{"name":"POZ190M","ref":"POZ190M","brand":"Paczkomat InPost","operator":"InPost","address":"","openingHours":"24/7","website":"https://inpost.pl/paczkomat-poznan-poz190m-ognik-paczkomaty-wielkopolskie"}},{"type":"Feature","geometry":{"type":"Point","coordinates":[16.983083,52.3797258]},"properties":{"name":"PL82302","ref":"PL82302","brand":"DPD Pickup Station","operator":"DPD","address":"","openingHours":"24/7","website":"https://www.dpd.com/pl/pl/dpd-pickup/znajdz-punkt-pickup/"}},{"type":"Feature","geometry":{"type":"Point","coordinates":[16.9943823,52.4487835]},"properties":{"name":"AL052PZ1","ref":"AL052PZ1","brand":"Allegro One Box","operator":"UPS","address":"","openingHours":"24/7","website":"https://allegro.pl/kampania/one/znajdz-nas?pointId=938678"}},{"type":"Feature","geometry":{"type":"Point","coordinates":[16.812535,52.3845854]},"properties":{"name":"PL82106","ref":"PL82106","brand":"DPD Pickup Station","operator":"DPD","address":"","openingHours":"24/7","website":""}},{"type":"Feature","geometry":{"type":"Point","coordinates":[16.8124936,52.3845359]},"properties":{"name":"AL046PO2","ref":"AL046PO2","brand":"Allegro One Box","operator":"UPS","address":"","openingHours":"24/7","website":"https://allegro.pl/kampania/one/znajdz-nas?pointId=782881"}},{"type":"Feature","geometry":{"type":"Point","coordinates":[16.813068,52.364031]},"properties":{"name":"AL055PZ1","ref":"AL055PZ1","brand":"Allegro One Box","operator":"UPS","address":"","openingHours":"24/7","website":""}},{"type":"Feature","geometry":{"type":"Point","coordinates":[16.843765,52.356141]},"properties":{"name":"Castomat","ref":"","brand":"","operator":"","address":"","openingHours":"24/7","website":""}},{"type":"Feature","geometry":{"type":"Point","coordinates":[16.9419924,52.4452975]},"properties":{"name":"POZ133M","ref":"POZ133M","brand":"Paczkomat InPost","operator":"InPost","address":"","openingHours":"24/7","website":"https://inpost.pl/paczkomat-poznan-poz133m-sarmacka-paczkomaty-wielkopolskie"}},{"type":"Feature","geometry":{"type":"Point","coordinates":[16.8739088,52.3785705]},"properties":{"name":"POZ13M","ref":"POZ13M","brand":"Paczkomat InPost","operator":"InPost","address":"","openingHours":"24/7","website":"https://inpost.pl/paczkomat-poznan-poz13m-glogowska-paczkomaty-wielkopolskie"}},{"type":"Feature","geometry":{"type":"Point","coordinates":[16.8815282,52.381482]},"properties":{"name":"Książkomat","ref":"","brand":"Biblioteka Raczyńskich","operator":"Biblioteka Raczyńskich","address":"","openingHours":"24/7","website":""}},{"type":"Feature","geometry":{"type":"Point","coordinates":[16.8832337,52.3827227]},"properties":{"name":"","ref":"","brand":"Orlen Paczka","operator":"Orlen","address":"","openingHours":"24/7","website":""}},{"type":"Feature","geometry":{"type":"Point","coordinates":[16.8819391,52.3835609]},"properties":{"name":"","ref":"","brand":"Paczkomat InPost","operator":"InPost","address":"","openingHours":"24/7","website":"https://inpost.pl/paczkomat-poznan-poz108m-ostrobramska-paczkomaty-wielkopolskie"}},{"type":"Feature","geometry":{"type":"Point","coordinates":[16.9250402,52.4561653]},"properties":{"name":"POZ103M","ref":"POZ103M","brand":"Paczkomat InPost","operator":"InPost","address":"","openingHours":"24/7","website":""}},{"type":"Feature","geometry":{"type":"Point","coordinates":[16.8698763,52.4075761]},"properties":{"name":"","ref":"","brand":"DPD Pickup Station","operator":"DPD","address":"","openingHours":"24/7","website":""}},{"type":"Feature","geometry":{"type":"Point","coordinates":[16.869985,52.407749]},"properties":{"name":"POZ244M","ref":"POZ244M","brand":"Paczkomat InPost","operator":"InPost","address":"","openingHours":"24/7","website":"https://inpost.pl/paczkomat-poznan-poz244m-ognik-paczkomaty-wielkopolskie"}},{"type":"Feature","geometry":{"type":"Point","coordinates":[16.8725767,52.4096352]},"properties":{"name":"","ref":"","brand":"DPD Pickup Station","operator":"DPD","address":"","openingHours":"24/7","website":""}},{"type":"Feature","geometry":{"type":"Point","coordinates":[16.8863319,52.3530578]},"properties":{"name":"LBO21M","ref":"LBO21M","brand":"Paczkomat InPost","operator":"InPost","address":"","openingHours":"24/7","website":"https://inpost.pl/paczkomat-lubon-lbo21m-debiecka-paczkomaty-wielkopolskie"}},{"type":"Feature","geometry":{"type":"Point","coordinates":[16.8722293,52.4120369]},"properties":{"name":"","ref":"","brand":"Orlen Paczka","operator":"Orlen","address":"","openingHours":"24/7","website":""}},{"type":"Feature","geometry":{"type":"Point","coordinates":[16.8732237,52.4119071]},"properties":{"name":"","ref":"","brand":"DPD Pickup Station","operator":"DPD","address":"","openingHours":"24/7","website":""}},{"type":"Feature","geometry":{"type":"Point","coordinates":[16.8733926,52.4118859]},"properties":{"name":"","ref":"","brand":"Allegro One Box","operator":"UPS","address":"","openingHours":"24/7","website":"https://allegro.pl/kampania/one/znajdz-nas?pointId=853910"}},{"type":"Feature","geometry":{"type":"Point","coordinates":[16.872536,52.4092959]},"properties":{"name":"","ref":"","brand":"Allegro One Box","operator":"UPS","address":"","openingHours":"24/7","website":"https://allegro.pl/kampania/one/znajdz-nas?pointId=779862"}},{"type":"Feature","geometry":{"type":"Point","coordinates":[16.8717118,52.4092701]},"properties":{"name":"POZ203M","ref":"POZ203M","brand":"Paczkomat InPost","operator":"InPost","address":"","openingHours":"24/7","website":"https://inpost.pl/paczkomat-poznan-poz203m-swoboda-paczkomaty-wielkopolskie"}},{"type":"Feature","geometry":{"type":"Point","coordinates":[16.9696553,52.3996437]},"properties":{"name":"APM 847691","ref":"APM 847691","brand":"Orlen Paczka","operator":"Orlen","address":"","openingHours":"24/7","website":"https://www.orlenpaczka.pl/pokaz-punkty"}},{"type":"Feature","geometry":{"type":"Point","coordinates":[16.872093,52.4075438]},"properties":{"name":"POZ213M","ref":"POZ213M","brand":"Paczkomat InPost","operator":"InPost","address":"","openingHours":"24/7","website":"https://inpost.pl/paczkomat-poznan-poz213m-swoboda-paczkomaty-wielkopolskie"}},{"type":"Feature","geometry":{"type":"Point","coordinates":[17.0061975,52.3910918]},"properties":{"name":"AL179PO1","ref":"AL179PO1","brand":"Allegro One Box","operator":"UPS","address":"","openingHours":"24/7","website":"https://allegro.pl/kampania/one/znajdz-nas"}},{"type":"Feature","geometry":{"type":"Point","coordinates":[16.8655616,52.4043733]},"properties":{"name":"POZ258M","ref":"POZ258M","brand":"Paczkomat InPost","operator":"InPost","address":"","openingHours":"24/7","website":""}},{"type":"Feature","geometry":{"type":"Point","coordinates":[16.8720316,52.404064]},"properties":{"name":"","ref":"","brand":"DPD Pickup Station","operator":"DPD","address":"","openingHours":"24/7","website":""}},{"type":"Feature","geometry":{"type":"Point","coordinates":[16.9043174,52.4305275]},"properties":{"name":"POZ88M","ref":"POZ88M","brand":"Paczkomat InPost","operator":"InPost","address":"","openingHours":"24/7","website":"https://inpost.pl/paczkomat-poznan-poz88m-blekitna-paczkomaty-wielkopolskie"}},{"type":"Feature","geometry":{"type":"Point","coordinates":[16.9108113,52.4084828]},"properties":{"name":"POZ97M","ref":"POZ97M","brand":"Paczkomat InPost","operator":"InPost","address":"","openingHours":"24/7","website":"https://inpost.pl/paczkomat-poznan-poz97m-roosevelta-paczkomaty-wielkopolskie"}},{"type":"Feature","geometry":{"type":"Point","coordinates":[16.8081333,52.3862854]},"properties":{"name":"POZ136M","ref":"POZ136M","brand":"Paczkomat InPost","operator":"InPost","address":"","openingHours":"24/7","website":""}},{"type":"Feature","geometry":{"type":"Point","coordinates":[16.8139678,52.3887424]},"properties":{"name":"","ref":"","brand":"Orlen Paczka","operator":"Orlen","address":"","openingHours":"24/7","website":""}},{"type":"Feature","geometry":{"type":"Point","coordinates":[16.8316963,52.3825696]},"properties":{"name":"","ref":"","brand":"DPD Pickup Station","operator":"DPD","address":"","openingHours":"24/7","website":""}},{"type":"Feature","geometry":{"type":"Point","coordinates":[16.8630312,52.3958149]},"properties":{"name":"","ref":"","brand":"Orlen Paczka","operator":"Orlen","address":"","openingHours":"24/7","website":""}},{"type":"Feature","geometry":{"type":"Point","coordinates":[16.8757441,52.399877]},"properties":{"name":"","ref":"","brand":"Allegro One Box","operator":"UPS","address":"","openingHours":"24/7","website":"https://allegro.pl/kampania/one/znajdz-nas?pointId=974909"}},{"type":"Feature","geometry":{"type":"Point","coordinates":[16.9040554,52.3629915]},"properties":{"name":"","ref":"","brand":"Orlen Paczka","operator":"Orlen","address":"","openingHours":"24/7","website":""}},{"type":"Feature","geometry":{"type":"Point","coordinates":[16.9058246,52.36007]},"properties":{"name":"POZ251M","ref":"POZ251M","brand":"Paczkomat InPost","operator":"InPost","address":"","openingHours":"24/7","website":"https://inpost.pl/paczkomat-poznan-poz251m-os-debina-paczkomaty-wielkopolskie"}},{"type":"Feature","geometry":{"type":"Point","coordinates":[16.943218,52.3784631]},"properties":{"name":"","ref":"","brand":"Paczkomat InPost","operator":"InPost","address":"","openingHours":"24/7","website":"https://inpost.pl/paczkomat-poznan-poz49n-starolecka-paczkomaty-wielkopolskie"}},{"type":"Feature","geometry":{"type":"Point","coordinates":[16.9010245,52.4159483]},"properties":{"name":"POZ09H","ref":"POZ09H","brand":"Paczkomat InPost","operator":"InPost","address":"","openingHours":"24/7","website":""}},{"type":"Feature","geometry":{"type":"Point","coordinates":[16.8493832,52.3878603]},"properties":{"name":"","ref":"","brand":"Paczkomat InPost","operator":"InPost","address":"","openingHours":"24/7","website":"https://inpost.pl/paczkomat-poznan-poz109m-grunwaldzka-paczkomaty-wielkopolskie"}},{"type":"Feature","geometry":{"type":"Point","coordinates":[16.8362276,52.3831414]},"properties":{"name":"","ref":"","brand":"Allegro One Box","operator":"UPS","address":"","openingHours":"24/7","website":""}},{"type":"Feature","geometry":{"type":"Point","coordinates":[16.8764483,52.4195657]},"properties":{"name":"","ref":"","brand":"Paczkomat InPost","operator":"InPost","address":"","openingHours":"24/7","website":"https://inpost.pl/paczkomat-poznan-poz138m-jana-henryka-dabrowskiego-paczkomaty-wielkopolskie"}},{"type":"Feature","geometry":{"type":"Point","coordinates":[16.8725211,52.4188431]},"properties":{"name":"","ref":"","brand":"Allegro One Box","operator":"UPS","address":"","openingHours":"24/7","website":"https://allegro.pl/kampania/one/znajdz-nas?pointId=1006697"}},{"type":"Feature","geometry":{"type":"Point","coordinates":[16.872616,52.419022]},"properties":{"name":"","ref":"","brand":"Orlen Paczka","operator":"Orlen","address":"","openingHours":"24/7","website":""}},{"type":"Feature","geometry":{"type":"Point","coordinates":[16.969627,52.3995675]},"properties":{"name":"AL156PO1","ref":"AL156PO1","brand":"Allegro One Box","operator":"UPS","address":"","openingHours":"24/7","website":"https://allegro.pl/kampania/one/znajdz-nas"}},{"type":"Feature","geometry":{"type":"Point","coordinates":[16.8783086,52.3640942]},"properties":{"name":"","ref":"","brand":"Paczkomat InPost","operator":"InPost","address":"","openingHours":"24/7","website":""}},{"type":"Feature","geometry":{"type":"Point","coordinates":[16.8552724,52.3658119]},"properties":{"name":"","ref":"","brand":"Paczkomat InPost","operator":"InPost","address":"","openingHours":"24/7","website":"https://inpost.pl/paczkomat-poznan-poz137m-fabianowo-paczkomaty-wielkopolskie"}},{"type":"Feature","geometry":{"type":"Point","coordinates":[16.8368287,52.4125342]},"properties":{"name":"","ref":"","brand":"Orlen Paczka","operator":"Orlen","address":"","openingHours":"24/7","website":""}},{"type":"Feature","geometry":{"type":"Point","coordinates":[16.9478434,52.4389793]},"properties":{"name":"","ref":"","brand":"Allegro One Box","operator":"UPS","address":"","openingHours":"24/7","website":""}},{"type":"Feature","geometry":{"type":"Point","coordinates":[16.9422427,52.4381669]},"properties":{"name":"AL136PO1","ref":"AL136PO1","brand":"Allegro One Box","operator":"UPS","address":"","openingHours":"24/7","website":"https://allegro.pl/kampania/one/znajdz-nas?pointId=919178"}},{"type":"Feature","geometry":{"type":"Point","coordinates":[16.9343424,52.436784]},"properties":{"name":"AL148PO1","ref":"AL148PO1","brand":"Allegro One Box","operator":"UPS","address":"","openingHours":"24/7","website":"https://allegro.pl/kampania/one/znajdz-nas?pointId=983803"}},{"type":"Feature","geometry":{"type":"Point","coordinates":[16.9376435,52.4360506]},"properties":{"name":"AL146PO1","ref":"AL146PO1","brand":"Allegro One Box","operator":"UPS","address":"","openingHours":"24/7","website":""}},{"type":"Feature","geometry":{"type":"Point","coordinates":[16.930113,52.439465]},"properties":{"name":"AL107PO1","ref":"AL107PO1","brand":"Allegro One Box","operator":"UPS","address":"","openingHours":"24/7","website":""}},{"type":"Feature","geometry":{"type":"Point","coordinates":[16.9344921,52.4425451]},"properties":{"name":"AL007PO1","ref":"AL007PO1","brand":"Allegro One Box","operator":"","address":"","openingHours":"24/7","website":"https://allegro.pl/kampania/one/znajdz-nas?pointId=750955"}},{"type":"Feature","geometry":{"type":"Point","coordinates":[16.9405037,52.4458668]},"properties":{"name":"AL168PO1","ref":"AL168PO1","brand":"Allegro One Box","operator":"UPS","address":"","openingHours":"24/7","website":"https://allegro.pl/kampania/one/znajdz-nas?pointId=1010078"}},{"type":"Feature","geometry":{"type":"Point","coordinates":[16.9283869,52.44207]},"properties":{"name":"AL120PO1","ref":"AL120PO1","brand":"Allegro One Box","operator":"UPS","address":"","openingHours":"24/7","website":"https://allegro.pl/kampania/one/znajdz-nas?pointId=917855"}},{"type":"Feature","geometry":{"type":"Point","coordinates":[16.8908468,52.4163068]},"properties":{"name":"POZ04L","ref":"POZ04L","brand":"Paczkomat InPost","operator":"InPost","address":"","openingHours":"24/7","website":""}},{"type":"Feature","geometry":{"type":"Point","coordinates":[16.9285427,52.3665332]},"properties":{"name":"","ref":"","brand":"Paczkomat InPost","operator":"InPost","address":"","openingHours":"24/7","website":""}},{"type":"Feature","geometry":{"type":"Point","coordinates":[16.8931082,52.4599166]},"properties":{"name":"","ref":"","brand":"Paczkomat InPost","operator":"InPost","address":"","openingHours":"24/7","website":""}},{"type":"Feature","geometry":{"type":"Point","coordinates":[16.9578561,52.3997693]},"properties":{"name":"POZ70N","ref":"POZ70N","brand":"Paczkomat InPost","operator":"InPost","address":"Polanka 13","openingHours":"24/7","website":"https://inpost.pl/paczkomat-poznan-poz70n-polanka-paczkomaty-wielkopolskie"}},{"type":"Feature","geometry":{"type":"Point","coordinates":[16.9430502,52.4292026]},"properties":{"name":"AL176PO1","ref":"AL176PO1","brand":"Allegro One Box","operator":"UPS","address":"","openingHours":"24/7","website":"https://allegro.pl/kampania/one/znajdz-nas?pointId=1006728"}},{"type":"Feature","geometry":{"type":"Point","coordinates":[16.9555041,52.4478401]},"properties":{"name":"POZ16H","ref":"POZ16H","brand":"Paczkomat InPost","operator":"InPost","address":"","openingHours":"24/7","website":""}},{"type":"Feature","geometry":{"type":"Point","coordinates":[16.8081463,52.3651456]},"properties":{"name":"","ref":"","brand":"Paczkomat InPost","operator":"InPost","address":"","openingHours":"24/7","website":"https://inpost.pl/paczkomat-plewiska-plw03m-grunwaldzka-paczkomaty-wielkopolskie"}},{"type":"Feature","geometry":{"type":"Point","coordinates":[16.9320468,52.4358277]},"properties":{"name":"POZ246M","ref":"POZ246M","brand":"Paczkomat InPost","operator":"","address":"","openingHours":"24/7","website":"https://inpost.pl/paczkomat-poznan-poz246m-os-wichrowe-wzgorze-paczkomaty-wielkopolskie"}},{"type":"Feature","geometry":{"type":"Point","coordinates":[16.9942638,52.4486916]},"properties":{"name":"KOG01HP","ref":"KOG01HP","brand":"Paczkomat InPost","operator":"InPost","address":"","openingHours":"Mo-Sa 10:00-23:00","website":"https://inpost.pl/paczkomat-kozieglowy-kog01hp-os-lesne-paczkomaty-wielkopolskie"}},{"type":"Feature","geometry":{"type":"Point","coordinates":[16.8144763,52.3698401]},"properties":{"name":"","ref":"","brand":"dpd Pickup Station","operator":"dpd","address":"","openingHours":"24/7","website":"https://dpd24na7.pl"}},{"type":"Feature","geometry":{"type":"Point","coordinates":[16.8282516,52.3763952]},"properties":{"name":"","ref":"","brand":"Paczkomat InPost","operator":"InPost","address":"","openingHours":"24/7","website":""}},{"type":"Feature","geometry":{"type":"Point","coordinates":[16.9177566,52.3837519]},"properties":{"name":"POZ232M","ref":"POZ232M","brand":"Paczkomat InPost","operator":"InPost","address":"","openingHours":"24/7","website":"https://inpost.pl/paczkomat-poznan-poz232m-hetmanska-paczkomaty-wielkopolskie"}},{"type":"Feature","geometry":{"type":"Point","coordinates":[16.9211199,52.407694]},"properties":{"name":"POZ02H","ref":"POZ02H","brand":"Paczkomat InPost","operator":"InPost","address":"","openingHours":"24/7","website":"https://inpost.pl/paczkomat-poznan-poz02h-gwarna-paczkomaty-wielkopolskie"}},{"type":"Feature","geometry":{"type":"Point","coordinates":[16.924648,52.4019261]},"properties":{"name":"POZ79M","ref":"POZ79M","brand":"Paczkomat InPost","operator":"InPost","address":"Plac Władysława Andersa 0","openingHours":"24/7","website":""}},{"type":"Feature","geometry":{"type":"Point","coordinates":[16.9066208,52.3625324]},"properties":{"name":"","ref":"","brand":"Allegro One Box","operator":"UPS","address":"","openingHours":"24/7","website":"https://allegro.pl/kampania/one/znajdz-nas?pointId=1092219"}},{"type":"Feature","geometry":{"type":"Point","coordinates":[16.9070806,52.3629668]},"properties":{"name":"POZ71M","ref":"POZ71M","brand":"Paczkomat InPost","operator":"InPost","address":"","openingHours":"24/7","website":""}},{"type":"Feature","geometry":{"type":"Point","coordinates":[16.9031489,52.3628176]},"properties":{"name":"PL82229","ref":"PL82229","brand":"DPD Pickup Station","operator":"DPD","address":"","openingHours":"24/7","website":""}},{"type":"Feature","geometry":{"type":"Point","coordinates":[16.8828156,52.3524079]},"properties":{"name":"","ref":"","brand":"Orlen Paczka","operator":"Orlen","address":"","openingHours":"24/7","website":""}},{"type":"Feature","geometry":{"type":"Point","coordinates":[16.882736,52.3522546]},"properties":{"name":"Dhl","ref":"","brand":"","operator":"","address":"","openingHours":"24/7","website":""}},{"type":"Feature","geometry":{"type":"Point","coordinates":[16.8827152,52.3522218]},"properties":{"name":"","ref":"","brand":"Allegro One Box","operator":"UPS","address":"","openingHours":"24/7","website":""}},{"type":"Feature","geometry":{"type":"Point","coordinates":[16.8162148,52.3601643]},"properties":{"name":"4591146","ref":"4591146","brand":"DHL BOX 24/7","operator":"DHL","address":"","openingHours":"24/7","website":""}},{"type":"Feature","geometry":{"type":"Point","coordinates":[16.9753733,52.4264332]},"properties":{"name":"APM 840196","ref":"APM 840196","brand":"Orlen Paczka","operator":"Orlen","address":"","openingHours":"24/7","website":""}},{"type":"Feature","geometry":{"type":"Point","coordinates":[16.9968762,52.449213]},"properties":{"name":"AL053PZ1","ref":"AL053PZ1","brand":"Allegro One Box","operator":"UPS","address":"","openingHours":"24/7","website":"https://allegro.pl/kampania/one/znajdz-nas?pointId=1078554"}},{"type":"Feature","geometry":{"type":"Point","coordinates":[16.9738108,52.4230792]},"properties":{"name":"AL034PO1","ref":"AL034PO1","brand":"Allegro One Box","operator":"UPS","address":"","openingHours":"24/7","website":"https://allegro.pl/kampania/one/znajdz-nas?pointId=778262"}},{"type":"Feature","geometry":{"type":"Point","coordinates":[16.9593268,52.4148356]},"properties":{"name":"AL184PO1","ref":"AL184PO1","brand":"Allegro One Box","operator":"UPS","address":"","openingHours":"24/7","website":"https://allegro.pl/kampania/one/znajdz-nas?pointId=1066870"}},{"type":"Feature","geometry":{"type":"Point","coordinates":[16.9646723,52.4198818]},"properties":{"name":"AL055PO2","ref":"AL055PO2","brand":"Allegro One Box","operator":"UPS","address":"","openingHours":"24/7","website":""}},{"type":"Feature","geometry":{"type":"Point","coordinates":[16.9755625,52.422398]},"properties":{"name":"AL161PO1","ref":"AL161PO1","brand":"Allegro One Box","operator":"UPS","address":"","openingHours":"24/7","website":"https://allegro.pl/kampania/one/znajdz-nas?pointId=1078887"}},{"type":"Feature","geometry":{"type":"Point","coordinates":[16.9680582,52.3869582]},"properties":{"name":"POZ78M","ref":"POZ78M","brand":"Paczkomat InPost","operator":"InPost","address":"","openingHours":"24/7","website":"https://inpost.pl/paczkomat-poznan-poz78m-bobrzanska-paczkomaty-wielkopolskie"}},{"type":"Feature","geometry":{"type":"Point","coordinates":[16.9840029,52.3878906]},"properties":{"name":"POZ163M","ref":"POZ163M","brand":"Paczkomat InPost","operator":"InPost","address":"","openingHours":"24/7","website":"https://inpost.pl/paczkomat-poznan-poz163m-os-rusa-paczkomaty-wielkopolskie"}},{"type":"Feature","geometry":{"type":"Point","coordinates":[16.9835375,52.3876397]},"properties":{"name":"PL82228","ref":"PL82228","brand":"DPD Pickup Station","operator":"DPD","address":"","openingHours":"24/7","website":"https://www.dpd.com/pl/pl/dpd-pickup/znajdz-punkt-pickup/"}},{"type":"Feature","geometry":{"type":"Point","coordinates":[16.8101505,52.3617027]},"properties":{"name":"","ref":"","brand":"Orlen Paczka","operator":"Orlen","address":"","openingHours":"24/7","website":""}},{"type":"Feature","geometry":{"type":"Point","coordinates":[16.9598079,52.3776902]},"properties":{"name":"POZ06APP","ref":"POZ06APP","brand":"Appkomat InPost","operator":"InPost","address":"","openingHours":"24/7","website":""}},{"type":"Feature","geometry":{"type":"Point","coordinates":[16.9605093,52.3776578]},"properties":{"name":"PL82420","ref":"PL82420","brand":"DPD Pickup Station","operator":"DPD","address":"","openingHours":"24/7","website":""}},{"type":"Feature","geometry":{"type":"Point","coordinates":[16.9348674,52.4268585]},"properties":{"name":"","ref":"","brand":"Orlen Paczka","operator":"Orlen","address":"","openingHours":"24/7","website":""}},{"type":"Feature","geometry":{"type":"Point","coordinates":[16.8952073,52.4133288]},"properties":{"name":"","ref":"","brand":"Allegro One Box","operator":"UPS","address":"","openingHours":"24/7","website":"https://allegro.pl/kampania/one/znajdz-nas?pointId=780795"}},{"type":"Feature","geometry":{"type":"Point","coordinates":[16.9966135,52.3922238]},"properties":{"name":"APM 690399","ref":"APM 690399","brand":"Orlen Paczka","operator":"Orlen","address":"","openingHours":"24/7","website":"https://www.orlenpaczka.pl/pokaz-punkty"}},{"type":"Feature","geometry":{"type":"Point","coordinates":[16.8238534,52.4097396]},"properties":{"name":"AL100PO1","ref":"AL100PO1","brand":"Allegro One Box","operator":"UPS","address":"","openingHours":"24/7","website":"https://allegro.pl/kampania/one/znajdz-nas?pointId=856038"}},{"type":"Feature","geometry":{"type":"Point","coordinates":[16.8724415,52.4040347]},"properties":{"name":"","ref":"","brand":"Paczkomat InPost","operator":"InPost","address":"","openingHours":"24/7","website":""}},{"type":"Feature","geometry":{"type":"Point","coordinates":[16.8681166,52.4104998]},"properties":{"name":"POZ04A","ref":"POZ04A","brand":"Paczkomat InPost","operator":"InPost","address":"","openingHours":"24/7","website":"https://inpost.pl/paczkomat-poznan-poz04a-bulgarska-paczkomaty-wielkopolskie"}},{"type":"Feature","geometry":{"type":"Point","coordinates":[16.8774857,52.4093996]},"properties":{"name":"","ref":"","brand":"DPD Pickup Station","operator":"DPD","address":"","openingHours":"24/7","website":""}},{"type":"Feature","geometry":{"type":"Point","coordinates":[16.8774023,52.4094149]},"properties":{"name":"","ref":"","brand":"Paczkomat InPost","operator":"InPost","address":"","openingHours":"24/7","website":""}},{"type":"Feature","geometry":{"type":"Point","coordinates":[16.9278682,52.406349]},"properties":{"name":"","ref":"","brand":"Allegro One Box","operator":"UPS","address":"","openingHours":"24/7","website":""}},{"type":"Feature","geometry":{"type":"Point","coordinates":[16.9277709,52.406663]},"properties":{"name":"","ref":"","brand":"DPD Pickup Station","operator":"DPD","address":"","openingHours":"24/7","website":""}},{"type":"Feature","geometry":{"type":"Point","coordinates":[16.9729829,52.3935085]},"properties":{"name":"396601","ref":"396601","brand":"Orlen Paczka","operator":"Orlen","address":"","openingHours":"24/7","website":"https://www.orlenpaczka.pl/automat-paczkowy-poznan-inflancka-45-wielkopolskie-396601/"}},{"type":"Feature","geometry":{"type":"Point","coordinates":[16.9730382,52.3935046]},"properties":{"name":"AL196PO1","ref":"AL196PO1","brand":"Allegro One Box","operator":"UPS","address":"","openingHours":"24/7","website":"https://allegro.pl/kampania/one/znajdz-nas?pointId=1130911"}},{"type":"Feature","geometry":{"type":"Point","coordinates":[16.9293415,52.4667404]},"properties":{"name":"POZ33N","ref":"POZ33N","brand":"Paczkomat InPost","operator":"InPost","address":"","openingHours":"24/7","website":""}},{"type":"Feature","geometry":{"type":"Point","coordinates":[16.9032166,52.4574442]},"properties":{"name":"","ref":"","brand":"Paczkomat InPost","operator":"InPost","address":"","openingHours":"24/7","website":""}},{"type":"Feature","geometry":{"type":"Point","coordinates":[16.9036494,52.4579597]},"properties":{"name":"","ref":"","brand":"Orlen Paczka","operator":"Orlen","address":"","openingHours":"24/7","website":""}},{"type":"Feature","geometry":{"type":"Point","coordinates":[16.9030337,52.4603048]},"properties":{"name":"","ref":"","brand":"Allegro One Box","operator":"UPS","address":"","openingHours":"24/7","website":"https://allegro.pl/kampania/one/znajdz-nas?pointId=782136"}},{"type":"Feature","geometry":{"type":"Point","coordinates":[16.9068472,52.4598691]},"properties":{"name":"POZ184M","ref":"POZ184M","brand":"Paczkomat InPost","operator":"InPost","address":"","openingHours":"24/7","website":""}},{"type":"Feature","geometry":{"type":"Point","coordinates":[16.9085814,52.4593766]},"properties":{"name":"POZ50A","ref":"POZ50A","brand":"Paczkomat InPost","operator":"InPost","address":"","openingHours":"24/7","website":"https://inpost.pl/paczkomat-poznan-poz50a-szymanowskiego-paczkomaty-wielkopolskie"}},{"type":"Feature","geometry":{"type":"Point","coordinates":[16.9045292,52.4626381]},"properties":{"name":"","ref":"","brand":"DPD Pickup Station","operator":"DPD","address":"","openingHours":"24/7","website":""}},{"type":"Feature","geometry":{"type":"Point","coordinates":[16.9033068,52.4630351]},"properties":{"name":"","ref":"","brand":"DPD Pickup Station","operator":"DPD","address":"","openingHours":"24/7","website":""}},{"type":"Feature","geometry":{"type":"Point","coordinates":[16.9196717,52.4609394]},"properties":{"name":"","ref":"","brand":"Allegro One Box","operator":"UPS","address":"","openingHours":"24/7","website":""}},{"type":"Feature","geometry":{"type":"Point","coordinates":[16.9095998,52.4227348]},"properties":{"name":"POZ267M","ref":"POZ267M","brand":"Paczkomat InPost","operator":"InPost","address":"","openingHours":"24/7","website":"https://inpost.pl/paczkomat-poznan-poz267m-nad-wierzbakiem-paczkomaty-wielkopolskie"}},{"type":"Feature","geometry":{"type":"Point","coordinates":[16.9117595,52.4224561]},"properties":{"name":"AL1107PO1","ref":"AL1107PO1","brand":"Allegro One Box","operator":"Allegro","address":"","openingHours":"24/7","website":""}},{"type":"Feature","geometry":{"type":"Point","coordinates":[16.8368572,52.4125402]},"properties":{"name":"","ref":"","brand":"DPD Pickup Station","operator":"DPD","address":"","openingHours":"24/7","website":""}},{"type":"Feature","geometry":{"type":"Point","coordinates":[16.8964366,52.3818081]},"properties":{"name":"","ref":"","brand":"Paczkomat InPost","operator":"InPost","address":"","openingHours":"24/7","website":""}},{"type":"Feature","geometry":{"type":"Point","coordinates":[16.8963757,52.3818319]},"properties":{"name":"","ref":"","brand":"Lodówkomat InPost","operator":"InPost","address":"","openingHours":"24/7","website":""}},{"type":"Feature","geometry":{"type":"Point","coordinates":[16.8452587,52.3686528]},"properties":{"name":"","ref":"","brand":"Orlen Paczka","operator":"Orlen","address":"","openingHours":"24/7","website":""}},{"type":"Feature","geometry":{"type":"Point","coordinates":[16.8492949,52.4294116]},"properties":{"name":"POZ03G","ref":"POZ03G","brand":"Paczkomat InPost","operator":"InPost","address":"","openingHours":"24/7","website":""}},{"type":"Feature","geometry":{"type":"Point","coordinates":[16.8555265,52.4275664]},"properties":{"name":"","ref":"","brand":"Paczkomat InPost","operator":"InPost","address":"","openingHours":"24/7","website":"https://inpost.pl/paczkomat-poznan-poz242m-jana-henryka-dabrowskiego-paczkomaty-wielkopolskie"}},{"type":"Feature","geometry":{"type":"Point","coordinates":[16.8026614,52.3976555]},"properties":{"name":"4592354","ref":"4592354","brand":"DHL BOX 24/7","operator":"DHL","address":"","openingHours":"24/7","website":""}},{"type":"Feature","geometry":{"type":"Point","coordinates":[16.9076746,52.4279215]},"properties":{"name":"","ref":"","brand":"Paczkomat InPost","operator":"InPost","address":"","openingHours":"24/7","website":""}},{"type":"Feature","geometry":{"type":"Point","coordinates":[16.9076774,52.4307434]},"properties":{"name":"POZ27M","ref":"POZ27M","brand":"Paczkomat InPost","operator":"InPost","address":"","openingHours":"24/7","website":""}},{"type":"Feature","geometry":{"type":"Point","coordinates":[16.9063162,52.4310581]},"properties":{"name":"POZ160M","ref":"POZ160M","brand":"Paczkomat InPost","operator":"InPost","address":"","openingHours":"24/7","website":""}},{"type":"Feature","geometry":{"type":"Point","coordinates":[16.8138971,52.3634219]},"properties":{"name":"4592385","ref":"4592385","brand":"DHL BOX 24/7","operator":"DHL","address":"","openingHours":"24/7","website":""}},{"type":"Feature","geometry":{"type":"Point","coordinates":[16.8130661,52.3692648]},"properties":{"name":"4591011","ref":"4591011","brand":"DHL BOX 24/7","operator":"DHL","address":"","openingHours":"24/7","website":""}},{"type":"Feature","geometry":{"type":"Point","coordinates":[16.8130139,52.3692928]},"properties":{"name":"708999","ref":"708999","brand":"Orlen Paczka","operator":"Orlen","address":"","openingHours":"24/7","website":"https://www.orlenpaczka.pl/automat-paczkowy-plewiska-grunwaldzka-511-wielkopolskie-708999/"}},{"type":"Feature","geometry":{"type":"Point","coordinates":[16.8914315,52.4299717]},"properties":{"name":"","ref":"","brand":"Paczkomat InPost","operator":"InPost","address":"","openingHours":"24/7","website":""}},{"type":"Feature","geometry":{"type":"Point","coordinates":[16.8981546,52.4285533]},"properties":{"name":"","ref":"","brand":"DPD Pickup Station","operator":"DPD","address":"","openingHours":"24/7","website":""}},{"type":"Feature","geometry":{"type":"Point","coordinates":[16.8143995,52.4323812]},"properties":{"name":"","ref":"","brand":"Paczkomat InPost","operator":"InPost","address":"","openingHours":"24/7","website":"https://inpost.pl/paczkomat-poznan-poz220m-czlopska-paczkomaty-wielkopolskie"}},{"type":"Feature","geometry":{"type":"Point","coordinates":[16.8579682,52.3511222]},"properties":{"name":"LBO16M","ref":"LBO16M","brand":"InPost","operator":"InPost","address":"","openingHours":"24/7","website":""}},{"type":"Feature","geometry":{"type":"Point","coordinates":[16.8086551,52.4311797]},"properties":{"name":"","ref":"","brand":"Orlen Paczka","operator":"Orlen","address":"","openingHours":"24/7","website":""}},{"type":"Feature","geometry":{"type":"Point","coordinates":[16.811776,52.4313765]},"properties":{"name":"4592709","ref":"4592709","brand":"DHL BOX 24/7","operator":"DHL","address":"","openingHours":"24/7","website":""}},{"type":"Feature","geometry":{"type":"Point","coordinates":[16.8378907,52.4319523]},"properties":{"name":"","ref":"","brand":"Paczkomat InPost","operator":"InPost","address":"","openingHours":"24/7","website":"https://inpost.pl/paczkomat-poznan-poz41n-olsztynska-paczkomaty-wielkopolskie"}},{"type":"Feature","geometry":{"type":"Point","coordinates":[16.9077782,52.4467675]},"properties":{"name":"POZ175M","ref":"POZ175M","brand":"Paczkomat InPost","operator":"InPost","address":"","openingHours":"24/7","website":"https://inpost.pl/paczkomat-poznan-poz175m-obornicka-paczkomaty-wielkopolskie"}},{"type":"Feature","geometry":{"type":"Point","coordinates":[16.9077238,52.4467771]},"properties":{"name":"POZ01I","ref":"POZ01I","brand":"Lodówkomat InPost","operator":"InPost","address":"","openingHours":"24/7","website":""}},{"type":"Feature","geometry":{"type":"Point","coordinates":[16.9072427,52.4426164]},"properties":{"name":"","ref":"","brand":"Paczkomat InPost","operator":"InPost","address":"","openingHours":"24/7","website":""}},{"type":"Feature","geometry":{"type":"Point","coordinates":[16.91042,52.4428824]},"properties":{"name":"POZ06A","ref":"POZ06A","brand":"Paczkomat InPost","operator":"InPost","address":"","openingHours":"24/7","website":""}},{"type":"Feature","geometry":{"type":"Point","coordinates":[16.9124913,52.4350058]},"properties":{"name":"POZ84M","ref":"POZ84M","brand":"Paczkomat InPost","operator":"InPost","address":"","openingHours":"24/7","website":"https://inpost.pl/paczkomat-poznan-poz84m-piatkowska-paczkomaty-wielkopolskie"}},{"type":"Feature","geometry":{"type":"Point","coordinates":[16.911053,52.4342926]},"properties":{"name":"","ref":"","brand":"Allegro One Box","operator":"UPS","address":"","openingHours":"24/7","website":"https://allegro.pl/kampania/one/znajdz-nas?pointId=779586"}},{"type":"Feature","geometry":{"type":"Point","coordinates":[16.9155439,52.4330613]},"properties":{"name":"731926","ref":"731926","brand":"Orlen Paczka","operator":"Orlen","address":"","openingHours":"24/7","website":"https://www.orlenpaczka.pl/automat-paczkowy-poznan-napoleonska-1-wielkopolskie-731926/"}},{"type":"Feature","geometry":{"type":"Point","coordinates":[16.918667,52.434911]},"properties":{"name":"","ref":"","brand":"DPD Pickup Station","operator":"DPD","address":"","openingHours":"24/7","website":""}},{"type":"Feature","geometry":{"type":"Point","coordinates":[16.915711,52.4435374]},"properties":{"name":"","ref":"","brand":"Allegro One Box","operator":"UPS","address":"","openingHours":"24/7","website":"https://allegro.pl/kampania/one/znajdz-nas?pointId=1065934"}},{"type":"Feature","geometry":{"type":"Point","coordinates":[16.9158522,52.4434674]},"properties":{"name":"","ref":"","brand":"Orlen Paczka","operator":"Orlen","address":"","openingHours":"24/7","website":""}},{"type":"Feature","geometry":{"type":"Point","coordinates":[16.9142315,52.4438385]},"properties":{"name":"","ref":"","brand":"Paczkomat InPost","operator":"InPost","address":"","openingHours":"24/7","website":"https://inpost.pl/paczkomat-poznan-poz174m-wojciechowskiego-paczkomaty-wielkopolskie"}},{"type":"Feature","geometry":{"type":"Point","coordinates":[16.9826549,52.3867598]},"properties":{"name":"POZ26N","ref":"POZ26N","brand":"Paczkomat InPost","operator":"InPost","address":"","openingHours":"24/7","website":"https://inpost.pl/paczkomat-poznan-poz26n-czecha-paczkomaty-wielkopolskie"}},{"type":"Feature","geometry":{"type":"Point","coordinates":[16.9618672,52.399173]},"properties":{"name":"AL193PO1","ref":"AL193PO1","brand":"Allegro One Box","operator":"UPS","address":"","openingHours":"24/7","website":"https://allegro.pl/kampania/one/znajdz-nas?pointId=1224313"}},{"type":"Feature","geometry":{"type":"Point","coordinates":[16.9642237,52.4003964]},"properties":{"name":"AL204PO1","ref":"AL204PO1","brand":"Allegro One Box","operator":"UPS","address":"","openingHours":"24/7","website":"https://allegro.pl/kampania/one/znajdz-nas"}},{"type":"Feature","geometry":{"type":"Point","coordinates":[16.9378636,52.4083315]},"properties":{"name":"POZ19HP","ref":"POZ19HP","brand":"Paczkomat InPost","operator":"InPost","address":"","openingHours":"Mo-Sa 10:00-22:00","website":"https://inpost.pl/paczkomat-poznan-poz19hp-garbary-paczkomaty-wielkopolskie"}},{"type":"Feature","geometry":{"type":"Point","coordinates":[16.9476052,52.3829583]},"properties":{"name":"AL173PO1","ref":"AL173PO1","brand":"Allegro One Box","operator":"UPS","address":"","openingHours":"24/7","website":""}},{"type":"Feature","geometry":{"type":"Point","coordinates":[16.8721761,52.3757704]},"properties":{"name":"4591384","ref":"4591384","brand":"DHL BOX 24/7","operator":"DHL","address":"","openingHours":"24/7","website":""}},{"type":"Feature","geometry":{"type":"Point","coordinates":[16.9288286,52.4283098]},"properties":{"name":"","ref":"","brand":"Orlen Paczka","operator":"Orlen","address":"","openingHours":"24/7","website":""}},{"type":"Feature","geometry":{"type":"Point","coordinates":[16.9303315,52.4286476]},"properties":{"name":"","ref":"","brand":"Allegro One Box","operator":"UPS","address":"","openingHours":"24/7","website":"https://allegro.pl/kampania/one/znajdz-nas?pointId=983777"}},{"type":"Feature","geometry":{"type":"Point","coordinates":[16.983278,52.4415857]},"properties":{"name":"KOG02G","ref":"KOG02G","brand":"Paczkomat InPost","operator":"InPost","address":"","openingHours":"24/7","website":"https://inpost.pl/paczkomat-kozieglowy-kog02g-poznanska-paczkomaty-wielkopolskie"}},{"type":"Feature","geometry":{"type":"Point","coordinates":[16.911604,52.4320994]},"properties":{"name":"","ref":"","brand":"Orlen Paczka","operator":"Orlen","address":"","openingHours":"24/7","website":""}},{"type":"Feature","geometry":{"type":"Point","coordinates":[16.9158264,52.4264806]},"properties":{"name":"","ref":"","brand":"Allegro One Box","operator":"UPS","address":"","openingHours":"24/7","website":"https://allegro.pl/kampania/one/znajdz-nas?pointId=856325"}},{"type":"Feature","geometry":{"type":"Point","coordinates":[16.9123143,52.4264455]},"properties":{"name":"","ref":"","brand":"Allegro One Box","operator":"UPS","address":"","openingHours":"24/7","website":"https://allegro.pl/kampania/one/znajdz-nas?pointId=983974"}},{"type":"Feature","geometry":{"type":"Point","coordinates":[16.9120672,52.4243809]},"properties":{"name":"POZ65M","ref":"POZ65M","brand":"Paczkomat InPost","operator":"InPost","address":"","openingHours":"24/7","website":"https://inpost.pl/paczkomat-poznan-poz65m-sokola-paczkomaty-wielkopolskie"}},{"type":"Feature","geometry":{"type":"Point","coordinates":[16.9120819,52.4244853]},"properties":{"name":"881654","ref":"881654","brand":"Orlen Paczka","operator":"Orlen","address":"","openingHours":"24/7","website":"https://www.orlenpaczka.pl/automat-paczkowy-poznan-sokola-5a-wielkopolskie-881654/"}},{"type":"Feature","geometry":{"type":"Point","coordinates":[16.9120845,52.4244623]},"properties":{"name":"4592340","ref":"4592340","brand":"DHL BOX 24/7","operator":"DHL","address":"","openingHours":"24/7","website":""}},{"type":"Feature","geometry":{"type":"Point","coordinates":[16.9120384,52.4244645]},"properties":{"name":"PL82473","ref":"PL82473","brand":"DPD Pickup Station","operator":"DPD","address":"","openingHours":"24/7","website":""}},{"type":"Feature","geometry":{"type":"Point","coordinates":[16.943648,52.3849636]},"properties":{"name":"POZ129M","ref":"POZ129M","brand":"Paczkomat InPost","operator":"InPost","address":"","openingHours":"24/7","website":"https://inpost.pl/paczkomat-poznan-poz129m-zamenhofa-paczkomaty-wielkopolskie"}},{"type":"Feature","geometry":{"type":"Point","coordinates":[16.9440593,52.3867773]},"properties":{"name":"POZ04H","ref":"POZ04H","brand":"Paczkomat InPost","operator":"InPost","address":"","openingHours":"24/7","website":"https://inpost.pl/paczkomat-poznan-poz04h-os-piastowskie-paczkomaty-wielkopolskie"}},{"type":"Feature","geometry":{"type":"Point","coordinates":[16.9464579,52.3906663]},"properties":{"name":"POZ43N","ref":"POZ43N","brand":"Paczkomat InPost","operator":"InPost","address":"","openingHours":"24/7","website":"https://inpost.pl/paczkomat-poznan-poz43n-obrzyca-paczkomaty-wielkopolskie"}},{"type":"Feature","geometry":{"type":"Point","coordinates":[16.9440985,52.3931384]},"properties":{"name":"POZ104M","ref":"POZ104M","brand":"Paczkomat InPost","operator":"InPost","address":"","openingHours":"24/7","website":"https://inpost.pl/paczkomat-poznan-poz104m-os-piastowskie-paczkomaty-wielkopolskie"}},{"type":"Feature","geometry":{"type":"Point","coordinates":[16.8339018,52.4136842]},"properties":{"name":"POZ02B","ref":"POZ02B","brand":"Paczkomat InPost","operator":"InPost","address":"","openingHours":"24/7","website":"https://inpost.pl/paczkomat-poznan-poz02b-bukowska-paczkomaty-wielkopolskie"}},{"type":"Feature","geometry":{"type":"Point","coordinates":[16.9088721,52.3772005]},"properties":{"name":"","ref":"","brand":"Allegro One Box","operator":"UPS","address":"","openingHours":"24/7","website":"https://allegro.pl/kampania/one/znajdz-nas?pointId=752293"}},{"type":"Feature","geometry":{"type":"Point","coordinates":[16.8689713,52.3750778]},"properties":{"name":"POZ07B","ref":"POZ07B","brand":"Paczkomat InPost","operator":"InPost","address":"","openingHours":"24/7","website":"https://inpost.pl/paczkomat-poznan-poz07b-glogowska-paczkomaty-wielkopolskie"}},{"type":"Feature","geometry":{"type":"Point","coordinates":[16.9785661,52.4121774]},"properties":{"name":"POZ01APP","ref":"POZ01APP","brand":"Appkomat InPost","operator":"InPost","address":"","openingHours":"24/7","website":"https://inpost.pl/paczkomat-poznan-poz01app-trzemeszenska-paczkomaty-wielkopolskie"}},{"type":"Feature","geometry":{"type":"Point","coordinates":[16.963074,52.4094708]},"properties":{"name":"POZ03APP","ref":"POZ03APP","brand":"Appkomat InPost","operator":"InPost","address":"","openingHours":"24/7","website":"https://inpost.pl/paczkomat-poznan-poz03app-warszawska-paczkomaty-wielkopolskie"}},{"type":"Feature","geometry":{"type":"Point","coordinates":[16.9644293,52.4128038]},"properties":{"name":"POZ273M","ref":"POZ273M","brand":"Paczkomat InPost","operator":"InPost","address":"","openingHours":"24/7","website":"https://inpost.pl/paczkomat-poznan-poz273m-malachowskiego-paczkomaty-wielkopolskie"}},{"type":"Feature","geometry":{"type":"Point","coordinates":[16.9811423,52.4091978]},"properties":{"name":"POZ262M","ref":"POZ262M","brand":"Paczkomat InPost","operator":"InPost","address":"","openingHours":"24/7","website":"https://inpost.pl/paczkomat-poznan-poz262m-warszawska-paczkomaty-wielkopolskie"}},{"type":"Feature","geometry":{"type":"Point","coordinates":[17.0160472,52.4057108]},"properties":{"name":"POZ265M","ref":"POZ265M","brand":"Paczkomat InPost","operator":"InPost","address":"","openingHours":"24/7","website":"https://inpost.pl/paczkomat-poznan-poz265m-leszka-paczkomaty-wielkopolskie"}},{"type":"Feature","geometry":{"type":"Point","coordinates":[16.9754907,52.4223757]},"properties":{"name":"PL83075","ref":"PL83075","brand":"DPD Pickup Station","operator":"DPD","address":"","openingHours":"24/7","website":""}},{"type":"Feature","geometry":{"type":"Point","coordinates":[16.9411672,52.436545]},"properties":{"name":"PL82429","ref":"PL82429","brand":"DPD Pickup Station","operator":"DPD","address":"","openingHours":"24/7","website":""}},{"type":"Feature","geometry":{"type":"Point","coordinates":[16.9412087,52.4365648]},"properties":{"name":"AL195PO1","ref":"AL195PO1","brand":"Allegro One Box","operator":"UPS","address":"","openingHours":"24/7","website":"https://allegro.pl/kampania/one/znajdz-nas?pointId=1115165"}},{"type":"Feature","geometry":{"type":"Point","coordinates":[16.941249,52.4366322]},"properties":{"name":"416189","ref":"416189","brand":"Orlen Paczka","operator":"Orlen","address":"","openingHours":"24/7","website":"https://www.orlenpaczka.pl/automat-paczkowy-poznan-zytnia-37-wielkopolskie-416189/"}},{"type":"Feature","geometry":{"type":"Point","coordinates":[16.9771902,52.3827029]},"properties":{"name":"POZ185M","ref":"POZ185M","brand":"Paczkomat InPost","operator":"InPost","address":"","openingHours":"24/7","website":"https://inpost.pl/paczkomat-poznan-poz185m-os-czecha-paczkomaty-wielkopolskie"}},{"type":"Feature","geometry":{"type":"Point","coordinates":[17.0100524,52.3640971]},"properties":{"name":"POZ116M","ref":"POZ116M","brand":"Paczkomat InPost","operator":"InPost","address":"","openingHours":"24/7","website":""}},{"type":"Feature","geometry":{"type":"Point","coordinates":[16.9972658,52.3679274]},"properties":{"name":"POZ141M","ref":"POZ141M","brand":"Paczkomat InPost","operator":"InPost","address":"","openingHours":"24/7","website":"https://inpost.pl/paczkomat-poznan-poz141m-chotominska-paczkomaty-wielkopolskie"}},{"type":"Feature","geometry":{"type":"Point","coordinates":[16.993586,52.3670575]},"properties":{"name":"POZ33M","ref":"POZ33M","brand":"Paczkomat InPost","operator":"InPost","address":"","openingHours":"24/7","website":""}},{"type":"Feature","geometry":{"type":"Point","coordinates":[16.9775121,52.4259082]},"properties":{"name":"POZ57A","ref":"POZ57A","brand":"Paczkomat InPost","operator":"InPost","address":"","openingHours":"24/7","website":"https://inpost.pl/paczkomat-poznan-poz57a-baltycka-paczkomaty-wielkopolskie"}},{"type":"Feature","geometry":{"type":"Point","coordinates":[16.9429246,52.3549539]},"properties":{"name":"POZ46A","ref":"POZ46A","brand":"Paczkomat InPost","operator":"InPost","address":"","openingHours":"24/7","website":"https://inpost.pl/paczkomat-poznan-poz46a-ozarowska-paczkomaty-wielkopolskie"}},{"type":"Feature","geometry":{"type":"Point","coordinates":[16.9246541,52.3578741]},"properties":{"name":"POZ34M","ref":"POZ34M","brand":"Paczkomat InPost","operator":"InPost","address":"","openingHours":"24/7","website":"https://inpost.pl/paczkomat-poznan-poz34m-starolecka-paczkomaty-wielkopolskie"}},{"type":"Feature","geometry":{"type":"Point","coordinates":[16.9350477,52.3634327]},"properties":{"name":"POZ131M","ref":"POZ131M","brand":"Paczkomat InPost","operator":"InPost","address":"","openingHours":"24/7","website":"https://inpost.pl/paczkomat-poznan-poz131m-sw-antoniego-paczkomaty-wielkopolskie"}},{"type":"Feature","geometry":{"type":"Point","coordinates":[16.9315011,52.3686799]},"properties":{"name":"POZ11HP","ref":"POZ11HP","brand":"Paczkomat InPost","operator":"InPost","address":"","openingHours":"24/7","website":"https://inpost.pl/paczkomat-poznan-poz11hp-starolecka-paczkomaty-wielkopolskie"}},{"type":"Feature","geometry":{"type":"Point","coordinates":[16.944199,52.3666115]},"properties":{"name":"POZ04APP","ref":"POZ04APP","brand":"Appkomat InPost","operator":"InPost","address":"","openingHours":"24/7","website":""}},{"type":"Feature","geometry":{"type":"Point","coordinates":[16.9456496,52.3808052]},"properties":{"name":"POZ45M","ref":"POZ45M","brand":"Paczkomat InPost","operator":"InPost","address":"","openingHours":"24/7","website":"https://inpost.pl/paczkomat-poznan-poz45m-pawia-paczkomaty-wielkopolskie"}},{"type":"Feature","geometry":{"type":"Point","coordinates":[16.9506542,52.381341]},"properties":{"name":"POZ56M","ref":"POZ56M","brand":"Paczkomat InPost","operator":"InPost","address":"","openingHours":"24/7","website":"https://inpost.pl/paczkomat-poznan-poz56m-os-armii-krajowej-paczkomaty-wielkopolskie"}},{"type":"Feature","geometry":{"type":"Point","coordinates":[16.9522533,52.3818003]},"properties":{"name":"POZ22H","ref":"POZ22H","brand":"Paczkomat InPost","operator":"InPost","address":"","openingHours":"24/7","website":""}},{"type":"Feature","geometry":{"type":"Point","coordinates":[16.9538809,52.3791196]},"properties":{"name":"POZ207M","ref":"POZ207M","brand":"Paczkomat InPost","operator":"InPost","address":"","openingHours":"24/7","website":""}},{"type":"Feature","geometry":{"type":"Point","coordinates":[16.9576168,52.3803676]},"properties":{"name":"POZ241M","ref":"POZ241M","brand":"Paczkomat InPost","operator":"InPost","address":"","openingHours":"24/7","website":""}},{"type":"Feature","geometry":{"type":"Point","coordinates":[16.9733872,52.3769977]},"properties":{"name":"POZ54A","ref":"POZ54A","brand":"Paczkomat InPost","operator":"InPost","address":"","openingHours":"24/7","website":"https://inpost.pl/paczkomat-poznan-poz54a-stanislawa-zwierzchowskiego-paczkomaty-wielkopolskie"}},{"type":"Feature","geometry":{"type":"Point","coordinates":[16.9673369,52.3835719]},"properties":{"name":"POZ45A","ref":"POZ45A","brand":"Paczkomat InPost","operator":"InPost","address":"","openingHours":"24/7","website":""}},{"type":"Feature","geometry":{"type":"Point","coordinates":[16.9672332,52.3834199]},"properties":{"name":"POZ393","ref":"POZ393","brand":"Paczkomat InPost","operator":"InPost","address":"","openingHours":"24/7","website":""}},{"type":"Feature","geometry":{"type":"Point","coordinates":[16.960835,52.3862634]},"properties":{"name":"POZ05N","ref":"POZ05N","brand":"Paczkomat InPost","operator":"InPost","address":"","openingHours":"24/7","website":""}},{"type":"Feature","geometry":{"type":"Point","coordinates":[16.9602227,52.386328]},"properties":{"name":"POZ32M","ref":"POZ32M","brand":"Paczkomat InPost","operator":"InPost","address":"","openingHours":"24/7","website":""}},{"type":"Feature","geometry":{"type":"Point","coordinates":[16.9597262,52.3870926]},"properties":{"name":"POZ250M","ref":"POZ250M","brand":"Paczkomat InPost","operator":"InPost","address":"","openingHours":"24/7","website":"https://inpost.pl/paczkomat-poznan-poz250m-pilsudskiego-paczkomaty-wielkopolskie"}},{"type":"Feature","geometry":{"type":"Point","coordinates":[16.9549902,52.387173]},"properties":{"name":"","ref":"","brand":"Paczkomat InPost","operator":"InPost","address":"","openingHours":"24/7","website":""}},{"type":"Feature","geometry":{"type":"Point","coordinates":[16.9499152,52.3885005]},"properties":{"name":"","ref":"","brand":"Paczkomat InPost","operator":"InPost","address":"","openingHours":"24/7","website":""}},{"type":"Feature","geometry":{"type":"Point","coordinates":[16.9525239,52.3911586]},"properties":{"name":"","ref":"","brand":"Paczkomat InPost","operator":"InPost","address":"","openingHours":"24/7","website":""}},{"type":"Feature","geometry":{"type":"Point","coordinates":[16.9595908,52.3922344]},"properties":{"name":"","ref":"","brand":"Paczkomat InPost","operator":"InPost","address":"","openingHours":"24/7","website":"https://inpost.pl/paczkomat-poznan-poz162m-oswiecenia-paczkomaty-wielkopolskie"}},{"type":"Feature","geometry":{"type":"Point","coordinates":[16.9590232,52.3901269]},"properties":{"name":"","ref":"","brand":"Paczkomat InPost","operator":"InPost","address":"","openingHours":"24/7","website":"https://inpost.pl/paczkomat-poznan-poz22n-os-oswiecenia-paczkomaty-wielkopolskie"}},{"type":"Feature","geometry":{"type":"Point","coordinates":[16.9767783,52.386199]},"properties":{"name":"","ref":"","brand":"Paczkomat InPost","operator":"InPost","address":"","openingHours":"24/7","website":""}},{"type":"Feature","geometry":{"type":"Point","coordinates":[16.9760403,52.3955261]},"properties":{"name":"","ref":"","brand":"Paczkomat InPost","operator":"InPost","address":"","openingHours":"24/7","website":"https://inpost.pl/paczkomat-poznan-poz290m-os-tysiaclecia-paczkomaty-wielkopolskie"}},{"type":"Feature","geometry":{"type":"Point","coordinates":[16.9630076,52.3953471]},"properties":{"name":"","ref":"","brand":"Paczkomat InPost","operator":"InPost","address":"","openingHours":"24/7","website":""}},{"type":"Feature","geometry":{"type":"Point","coordinates":[16.9546784,52.3978644]},"properties":{"name":"POZ31HP","ref":"POZ31HP","brand":"Paczkomat InPost","operator":"InPost","address":"","openingHours":"Mo-Sa 10:00-22:00; Su 10:00-21:00","website":""}},{"type":"Feature","geometry":{"type":"Point","coordinates":[16.9540866,52.3975299]},"properties":{"name":"POZ13HO","ref":"POZ13HO","brand":"Paczkomat InPost","operator":"InPost","address":"","openingHours":"Mo-Sa 10:00-22:00","website":""}},{"type":"Feature","geometry":{"type":"Point","coordinates":[16.9493223,52.3973118]},"properties":{"name":"POZ10HP","ref":"POZ10HP","brand":"Paczkomat InPost","operator":"InPost","address":"","openingHours":"Mo-Sa 08:00-23:00","website":""}},{"type":"Feature","geometry":{"type":"Point","coordinates":[16.9838931,52.3930699]},"properties":{"name":"","ref":"","brand":"Paczkomat InPost","operator":"InPost","address":"","openingHours":"24/7","website":"https://inpost.pl/paczkomat-poznan-poz14hp-blizniat-paczkomaty-wielkopolskie"}},{"type":"Feature","geometry":{"type":"Point","coordinates":[17.0061745,52.3902677]},"properties":{"name":"","ref":"","brand":"Paczkomat InPost","operator":"InPost","address":"","openingHours":"24/7","website":"https://inpost.pl/paczkomat-poznan-poz145m-folwarczna-paczkomaty-wielkopolskie"}},{"type":"Feature","geometry":{"type":"Point","coordinates":[17.003238,52.3879274]},"properties":{"name":"","ref":"","brand":"Paczkomat InPost","operator":"InPost","address":"","openingHours":"24/7","website":"https://inpost.pl/paczkomat-poznan-poz57m-os-przemyslawa-paczkomaty-wielkopolskie"}},{"type":"Feature","geometry":{"type":"Point","coordinates":[16.9661368,52.4227437]},